{
"type": "FeatureCollection",
"name": "CommunityCenter",
"crs": { "type": "name", "properties": { "name": "urn:ogc:def:crs:OGC:1.3:CRS84" } },
"features": [
{ "type": "Feature", "properties": { "OBJECTID": 1, "Name": "Roy Recreation Center", "City": "Roy", "County": "Weber", "Facility": "Recreation Center" }, "geometry": { "type": "Point", "coordinates": [ -112.031277152172962, 41.178412849331849 ] } },
{ "type": "Feature", "properties": { "OBJECTID": 2, "Name": "Brigham City Community Center", "City": "Brigham City", "County": "Box Elder", "Facility": "Recreation Center" }, "geometry": { "type": "Point", "coordinates": [ -112.020022705255613, 41.511126302315574 ] } },
{ "type": "Feature", "properties": { "OBJECTID": 3, "Name": "Brigham City Community Pool", "City": "Brigham City", "County": "Box Elder", "Facility": "Recreation Center" }, "geometry": { "type": "Point", "coordinates": [ -112.027700994061192, 41.510974530106139 ] } },
{ "type": "Feature", "properties": { "OBJECTID": 4, "Name": "North Shore Aquatic Center", "City": "North Ogden", "County": "Weber", "Facility": "Recreation Center" }, "geometry": { "type": "Point", "coordinates": [ -111.973109227096629, 41.303176233189831 ] } },
{ "type": "Feature", "properties": { "OBJECTID": 5, "Name": "Farr West Recreation Center", "City": "Farr West", "County": "Weber", "Facility": "Recreation Center" }, "geometry": { "type": "Point", "coordinates": [ -112.02451140886393, 41.291929744740457 ] } },
{ "type": "Feature", "properties": { "OBJECTID": 6, "Name": "Riverdale Community Center", "City": "Riverdale", "County": "Weber", "Facility": "Recreation Center" }, "geometry": { "type": "Point", "coordinates": [ -112.009611345198721, 41.184153044718364 ] } },
{ "type": "Feature", "properties": { "OBJECTID": 7, "Name": "South Weber City Family Activity Center", "City": "South Weber", "County": "Davis", "Facility": "Recreation Center" }, "geometry": { "type": "Point", "coordinates": [ -111.949055411534601, 41.132077551130791 ] } },
{ "type": "Feature", "properties": { "OBJECTID": 8, "Name": "Clearfield Aquatic Center", "City": "Clearfield", "County": "Davis", "Facility": "Recreation Center" }, "geometry": { "type": "Point", "coordinates": [ -112.012490538210798, 41.102609004649324 ] } },
{ "type": "Feature", "properties": { "OBJECTID": 9, "Name": "Syracuse Recreation Center", "City": "Syracuse", "County": "Davis", "Facility": "Recreation Center" }, "geometry": { "type": "Point", "coordinates": [ -112.063131234281414, 41.086723084324269 ] } },
{ "type": "Feature", "properties": { "OBJECTID": 10, "Name": "Kaysville City Recreation and Community Center", "City": "Kaysville", "County": "Davis", "Facility": "Recreation Center" }, "geometry": { "type": "Point", "coordinates": [ -111.936751566177065, 41.036065540262356 ] } },
{ "type": "Feature", "properties": { "OBJECTID": 11, "Name": "Layton City Surf 'N Swim", "City": "Layton", "County": "Davis", "Facility": "Recreation Center" }, "geometry": { "type": "Point", "coordinates": [ -111.961999328989961, 41.067391281176114 ] } },
{ "type": "Feature", "properties": { "OBJECTID": 12, "Name": "Farmington Swimming Pool", "City": "Farmington", "County": "Davis", "Facility": "Recreation Center" }, "geometry": { "type": "Point", "coordinates": [ -111.888979873528228, 40.978236159197209 ] } },
{ "type": "Feature", "properties": { "OBJECTID": 13, "Name": "South Davis Recreation Center", "City": "Bountiful", "County": "Davis", "Facility": "Recreation Center" }, "geometry": { "type": "Point", "coordinates": [ -111.883622075035376, 40.895460639802614 ] } },
{ "type": "Feature", "properties": { "OBJECTID": 14, "Name": "North Canyon Swim & Tennis Club", "City": "Bountiful", "County": "Davis", "Facility": "Recreation Center" }, "geometry": { "type": "Point", "coordinates": [ -111.868269874914589, 40.856424370180896 ] } },
{ "type": "Feature", "properties": { "OBJECTID": 15, "Name": "Liberty Wells Recreation Center", "City": "Salt Lake City", "County": "Salt Lake", "Facility": "Recreation Center" }, "geometry": { "type": "Point", "coordinates": [ -111.879034751680209, 40.753786903688699 ] } },
{ "type": "Feature", "properties": { "OBJECTID": 16, "Name": "George S. Eccles Student Life Center", "City": "Salt Lake City", "County": "Salt Lake", "Facility": "Recreation Center" }, "geometry": { "type": "Point", "coordinates": [ -111.838203159048859, 40.765095290353749 ] } },
{ "type": "Feature", "properties": { "OBJECTID": 17, "Name": "Bonneville Columbus Community", "City": "Salt Lake City", "County": "Salt Lake", "Facility": "Recreation Center" }, "geometry": { "type": "Point", "coordinates": [ -111.86192805018139, 40.765606973910153 ] } },
{ "type": "Feature", "properties": { "OBJECTID": 18, "Name": "Urban Indian Center of Salt Lake", "City": "Salt Lake City", "County": "Salt Lake", "Facility": "Recreation Center" }, "geometry": { "type": "Point", "coordinates": [ -111.894872739147061, 40.741934374239783 ] } },
{ "type": "Feature", "properties": { "OBJECTID": 19, "Name": "Heart of Our Community", "City": "Salt Lake City", "County": "Salt Lake", "Facility": "Recreation Center" }, "geometry": { "type": "Point", "coordinates": [ -111.89061478398915, 40.765248088039051 ] } },
{ "type": "Feature", "properties": { "OBJECTID": 20, "Name": "I.J. & Jeanne Wagner Jewish Community Center", "City": "Salt Lake City", "County": "Salt Lake", "Facility": "Recreation Center" }, "geometry": { "type": "Point", "coordinates": [ -111.839587444037079, 40.773582840322689 ] } },
{ "type": "Feature", "properties": { "OBJECTID": 21, "Name": "West Community Center", "City": "Salt Lake City", "County": "Salt Lake", "Facility": "Recreation Center" }, "geometry": { "type": "Point", "coordinates": [ -111.835085941232592, 40.752719907262062 ] } },
{ "type": "Feature", "properties": { "OBJECTID": 22, "Name": "The Multipurpose Center", "City": "Salt Lake City", "County": "Salt Lake", "Facility": "Recreation Center" }, "geometry": { "type": "Point", "coordinates": [ -111.941359558868598, 40.717603377375923 ] } },
{ "type": "Feature", "properties": { "OBJECTID": 23, "Name": "Columbus Community Center", "City": "Salt Lake City", "County": "Salt Lake", "Facility": "Recreation Center" }, "geometry": { "type": "Point", "coordinates": [ -111.893575686861155, 40.695336047779122 ] } },
{ "type": "Feature", "properties": { "OBJECTID": 24, "Name": "The Park Center", "City": "Murray", "County": "Salt Lake", "Facility": "Recreation Center" }, "geometry": { "type": "Point", "coordinates": [ -111.884919960059563, 40.659179250352338 ] } },
{ "type": "Feature", "properties": { "OBJECTID": 25, "Name": "Murray Aquatics Center", "City": "Murray", "County": "Salt Lake", "Facility": "Recreation Center" }, "geometry": { "type": "Point", "coordinates": [ -111.881338704906852, 40.660317368152285 ] } },
{ "type": "Feature", "properties": { "OBJECTID": 26, "Name": "Center of the Deaf and Hard of Hearing", "City": "Taylorsville", "County": "Salt Lake", "Facility": "Recreation Center" }, "geometry": { "type": "Point", "coordinates": [ -111.933520559662071, 40.646931326339434 ] } },
{ "type": "Feature", "properties": { "OBJECTID": 27, "Name": "Sandy Rec Center", "City": "Sandy", "County": "Salt Lake", "Facility": "Recreation Center" }, "geometry": { "type": "Point", "coordinates": [ -111.878911422873188, 40.593483553160326 ] } },
{ "type": "Feature", "properties": { "OBJECTID": 28, "Name": "Cottonwood Heights Recreation Center", "City": "Cottonwood Heights", "County": "Salt Lake", "Facility": "Recreation Center" }, "geometry": { "type": "Point", "coordinates": [ -111.816033050450528, 40.615159196138485 ] } },
{ "type": "Feature", "properties": { "OBJECTID": 29, "Name": "Alta Canyon Sports Center", "City": "Sandy", "County": "Salt Lake", "Facility": "Recreation Center" }, "geometry": { "type": "Point", "coordinates": [ -111.83339480881132, 40.577571563037907 ] } },
{ "type": "Feature", "properties": { "OBJECTID": 30, "Name": "White Towers Swimming", "City": "Sandy", "County": "Salt Lake", "Facility": "Recreation Center" }, "geometry": { "type": "Point", "coordinates": [ -111.862478039222523, 40.562580530920997 ] } },
{ "type": "Feature", "properties": { "OBJECTID": 31, "Name": "Daybreak Community Center", "City": "South Jordan", "County": "Salt Lake", "Facility": "Recreation Center" }, "geometry": { "type": "Point", "coordinates": [ -111.999883783634402, 40.538975433814699 ] } },
{ "type": "Feature", "properties": { "OBJECTID": 32, "Name": "Brookside Pool", "City": "South Jordan", "County": "Salt Lake", "Facility": "Recreation Center" }, "geometry": { "type": "Point", "coordinates": [ -112.008780386492916, 40.564082821458292 ] } },
{ "type": "Feature", "properties": { "OBJECTID": 33, "Name": "Eastlake Pool", "City": "South Jordan", "County": "Salt Lake", "Facility": "Recreation Center" }, "geometry": { "type": "Point", "coordinates": [ -111.994398114452423, 40.555805468306211 ] } },
{ "type": "Feature", "properties": { "OBJECTID": 34, "Name": "Pepperwood Recreation Center", "City": "Sandy", "County": "Salt Lake", "Facility": "Recreation Center" }, "geometry": { "type": "Point", "coordinates": [ -111.817750994888073, 40.55035193656245 ] } },
{ "type": "Feature", "properties": { "OBJECTID": 35, "Name": "Community Center Granite", "City": "South Salt Lake", "County": "Salt Lake", "Facility": "Recreation Center" }, "geometry": { "type": "Point", "coordinates": [ -111.888773060688607, 40.717212158099038 ] } },
{ "type": "Feature", "properties": { "OBJECTID": 36, "Name": "Life Community Center", "City": "West Valley City", "County": "Salt Lake", "Facility": "Recreation Center" }, "geometry": { "type": "Point", "coordinates": [ -111.982213841147399, 40.668230505739011 ] } },
{ "type": "Feature", "properties": { "OBJECTID": 37, "Name": "Sunnyvale Neighborhood Center", "City": "Millcreek", "County": "Salt Lake", "Facility": "Recreation Center" }, "geometry": { "type": "Point", "coordinates": [ -111.908564426821343, 40.68646210486957 ] } },
{ "type": "Feature", "properties": { "OBJECTID": 38, "Name": "Community Family Center Taylorsville", "City": "Taylorsville", "County": "Salt Lake", "Facility": "Recreation Center" }, "geometry": { "type": "Point", "coordinates": [ -111.935553938528486, 40.679371218539814 ] } },
{ "type": "Feature", "properties": { "OBJECTID": 39, "Name": "Cornerstone Community Center", "City": "South Jordan", "County": "Salt Lake", "Facility": "Recreation Center" }, "geometry": { "type": "Point", "coordinates": [ -111.934782865112794, 40.566056114291619 ] } },
{ "type": "Feature", "properties": { "OBJECTID": 40, "Name": "LiveDAYBREAK", "City": "South Jordan", "County": "Salt Lake", "Facility": "Recreation Center" }, "geometry": { "type": "Point", "coordinates": [ -112.00245530725492, 40.546390391065856 ] } },
{ "type": "Feature", "properties": { "OBJECTID": 41, "Name": "Sandra N. Lloyd Center", "City": "Riverton", "County": "Salt Lake", "Facility": "Recreation Center" }, "geometry": { "type": "Point", "coordinates": [ -111.93986901036881, 40.51775549717874 ] } },
{ "type": "Feature", "properties": { "OBJECTID": 42, "Name": "USA Potential Community Center", "City": "South Jordan", "County": "Salt Lake", "Facility": "Recreation Center" }, "geometry": { "type": "Point", "coordinates": [ -111.939636654832356, 40.773612806445023 ] } },
{ "type": "Feature", "properties": { "OBJECTID": 43, "Name": "We Are Elevn", "City": "Salt Lake City", "County": "Salt Lake", "Facility": "Recreation Center" }, "geometry": { "type": "Point", "coordinates": [ -111.903871263061092, 40.760300701990467 ] } },
{ "type": "Feature", "properties": { "OBJECTID": 44, "Name": "Bk Block Community Hall", "City": "Salt Lake City", "County": "Salt Lake", "Facility": "Recreation Center" }, "geometry": { "type": "Point", "coordinates": [ -111.890776594826335, 40.760903053865732 ] } },
{ "type": "Feature", "properties": { "OBJECTID": 45, "Name": "Salt Lake Community Action Program", "City": "Salt Lake City", "County": "Salt Lake", "Facility": "Recreation Center" }, "geometry": { "type": "Point", "coordinates": [ -111.897212605222123, 40.752320293481716 ] } },
{ "type": "Feature", "properties": { "OBJECTID": 46, "Name": "Utah Chinese Portal", "City": "North Salt Lake", "County": "Davis", "Facility": "Recreation Center" }, "geometry": { "type": "Point", "coordinates": [ -111.90884963383921, 40.845551018953252 ] } },
{ "type": "Feature", "properties": { "OBJECTID": 47, "Name": "Clearfield Community Arts Center", "City": "Clearfield", "County": "Davis", "Facility": "Recreation Center" }, "geometry": { "type": "Point", "coordinates": [ -112.023149135295128, 41.113484997564534 ] } },
{ "type": "Feature", "properties": { "OBJECTID": 48, "Name": "University Village Community Center", "City": "Ogden", "County": "Weber", "Facility": "Recreation Center" }, "geometry": { "type": "Point", "coordinates": [ -111.945944085768261, 41.17887771997097 ] } },
{ "type": "Feature", "properties": { "OBJECTID": 49, "Name": "Eccles Community Art Center", "City": "Ogden", "County": "Weber", "Facility": "Recreation Center" }, "geometry": { "type": "Point", "coordinates": [ -111.964596274933029, 41.218775080452787 ] } },
{ "type": "Feature", "properties": { "OBJECTID": 50, "Name": "Project Success", "City": "Ogden", "County": "Weber", "Facility": "Recreation Center" }, "geometry": { "type": "Point", "coordinates": [ -111.972188250012834, 41.222560256841042 ] } },
{ "type": "Feature", "properties": { "OBJECTID": 51, "Name": "YMCA Community Family Center", "City": "Ogden", "County": "Weber", "Facility": "Recreation Center" }, "geometry": { "type": "Point", "coordinates": [ -111.965167092312328, 41.281892427445115 ] } },
{ "type": "Feature", "properties": { "OBJECTID": 52, "Name": "JL Sorenson Recreation Center", "City": "Herriman", "County": "Salt Lake", "Facility": "Recreation Center" }, "geometry": { "type": "Point", "coordinates": [ -112.018205347858839, 40.51752585273664 ] } },
{ "type": "Feature", "properties": { "OBJECTID": 53, "Name": "South County Pool", "City": "Riverton", "County": "Salt Lake", "Facility": "Recreation Center" }, "geometry": { "type": "Point", "coordinates": [ -111.923510413262193, 40.519632371693191 ] } },
{ "type": "Feature", "properties": { "OBJECTID": 54, "Name": "Fairmont Aquatics Center", "City": "Salt Lake City", "County": "Salt Lake", "Facility": "Recreation Center" }, "geometry": { "type": "Point", "coordinates": [ -111.860788509395718, 40.722173659374604 ] } },
{ "type": "Feature", "properties": { "OBJECTID": 55, "Name": "Draper Outdoor Pool", "City": "Draper", "County": "Salt Lake", "Facility": "Recreation Center" }, "geometry": { "type": "Point", "coordinates": [ -111.87342981317795, 40.490949293863721 ] } },
{ "type": "Feature", "properties": { "OBJECTID": 56, "Name": "Accord Ice Center", "City": "West Valley City", "County": "Salt Lake", "Facility": "Recreation Center" }, "geometry": { "type": "Point", "coordinates": [ -112.01893229692611, 40.703226164709591 ] } },
{ "type": "Feature", "properties": { "OBJECTID": 57, "Name": "Centennial Outdoor Pool", "City": "West Valley City", "County": "Salt Lake", "Facility": "Recreation Center" }, "geometry": { "type": "Point", "coordinates": [ -112.019452443933488, 40.700767059226187 ] } },
{ "type": "Feature", "properties": { "OBJECTID": 58, "Name": "Copperview Recreation Center", "City": "Midvale", "County": "Salt Lake", "Facility": "Recreation Center" }, "geometry": { "type": "Point", "coordinates": [ -111.901121276532962, 40.598058414440843 ] } },
{ "type": "Feature", "properties": { "OBJECTID": 59, "Name": "County Ice Center", "City": "Murray", "County": "Salt Lake", "Facility": "Recreation Center" }, "geometry": { "type": "Point", "coordinates": [ -111.885290506131085, 40.657797728888482 ] } },
{ "type": "Feature", "properties": { "OBJECTID": 60, "Name": "Crestwood Outdoor Pool", "City": "Cottonwood Heights", "County": "Salt Lake", "Facility": "Recreation Center" }, "geometry": { "type": "Point", "coordinates": [ -111.84446186626208, 40.614340262508556 ] } },
{ "type": "Feature", "properties": { "OBJECTID": 61, "Name": "Dimple Dell Recreation Center", "City": "Sandy", "County": "Salt Lake", "Facility": "Recreation Center" }, "geometry": { "type": "Point", "coordinates": [ -111.864825875150785, 40.557645815317535 ] } },
{ "type": "Feature", "properties": { "OBJECTID": 62, "Name": "Gene Fullmer Recreation Center", "City": "West Jordan", "County": "Salt Lake", "Facility": "Recreation Center" }, "geometry": { "type": "Point", "coordinates": [ -111.946496527210144, 40.605369446982699 ] } },
{ "type": "Feature", "properties": { "OBJECTID": 63, "Name": "West Jordan Outdoor Pool", "City": "West Jordan", "County": "Salt Lake", "Facility": "Recreation Center" }, "geometry": { "type": "Point", "coordinates": [ -111.947357858853991, 40.603282728401545 ] } },
{ "type": "Feature", "properties": { "OBJECTID": 64, "Name": "Holladay Lions Recreation Center", "City": "Holladay", "County": "Salt Lake", "Facility": "Recreation Center" }, "geometry": { "type": "Point", "coordinates": [ -111.844159115146724, 40.667234743166375 ] } },
{ "type": "Feature", "properties": { "OBJECTID": 65, "Name": "Liberty Outdoor Pool", "City": "Salt Lake City", "County": "Salt Lake", "Facility": "Recreation Center" }, "geometry": { "type": "Point", "coordinates": [ -111.875833580910722, 40.74495482284248 ] } },
{ "type": "Feature", "properties": { "OBJECTID": 66, "Name": "Magna Recreation Center", "City": null, "County": "Salt Lake", "Facility": "Recreation Center" }, "geometry": { "type": "Point", "coordinates": [ -112.092994157443499, 40.700890943612706 ] } },
{ "type": "Feature", "properties": { "OBJECTID": 67, "Name": "Marv Jenson Recreation Center", "City": "South Jordan", "County": "Salt Lake", "Facility": "Recreation Center" }, "geometry": { "type": "Point", "coordinates": [ -111.939503732916393, 40.564658291509403 ] } },
{ "type": "Feature", "properties": { "OBJECTID": 68, "Name": "Millcreek Activity Center", "City": "Millcreek", "County": "Salt Lake", "Facility": "Recreation Center" }, "geometry": { "type": "Point", "coordinates": [ -111.86223562974142, 40.676571951005243 ] } },
{ "type": "Feature", "properties": { "OBJECTID": 69, "Name": "Millcreek Community Center", "City": "Millcreek", "County": "Salt Lake", "Facility": "Recreation Center" }, "geometry": { "type": "Point", "coordinates": [ -111.826484054957533, 40.696256926630767 ] } },
{ "type": "Feature", "properties": { "OBJECTID": 70, "Name": "Northwest Community Center", "City": "Salt Lake City", "County": "Salt Lake", "Facility": "Recreation Center" }, "geometry": { "type": "Point", "coordinates": [ -111.927957247293435, 40.776200916422283 ] } },
{ "type": "Feature", "properties": { "OBJECTID": 71, "Name": "Redwood Recreation Center", "City": "West Valley City", "County": "Salt Lake", "Facility": "Recreation Center" }, "geometry": { "type": "Point", "coordinates": [ -111.937251503785504, 40.704674482970262 ] } },
{ "type": "Feature", "properties": { "OBJECTID": 72, "Name": "SLC Sports Complex", "City": "Salt Lake City", "County": "Salt Lake", "Facility": "Recreation Center" }, "geometry": { "type": "Point", "coordinates": [ -111.843776963740027, 40.755264460382755 ] } },
{ "type": "Feature", "properties": { "OBJECTID": 73, "Name": "Sorenson Unity", "City": "Salt Lake City", "County": "Salt Lake", "Facility": "Recreation Center" }, "geometry": { "type": "Point", "coordinates": [ -111.915042225945811, 40.7404213130215 ] } },
{ "type": "Feature", "properties": { "OBJECTID": 74, "Name": "Taylorsville Recreation Center", "City": "Taylorsville", "County": "Salt Lake", "Facility": "Recreation Center" }, "geometry": { "type": "Point", "coordinates": [ -111.959711459200179, 40.662096840683446 ] } },
{ "type": "Feature", "properties": { "OBJECTID": 75, "Name": "Central City Recreation Center", "City": "Salt Lake City", "County": "Salt Lake", "Facility": "Recreation Center" }, "geometry": { "type": "Point", "coordinates": [ -111.881728986965172, 40.75572975281986 ] } },
{ "type": "Feature", "properties": { "OBJECTID": 76, "Name": "Washington Terrace Senior Center", "City": "Washington Terrace", "County": "Weber", "Facility": "Recreation Center" }, "geometry": { "type": "Point", "coordinates": [ -111.9834309128303, 41.179555640207319 ] } },
{ "type": "Feature", "properties": { "OBJECTID": 77, "Name": "South Mountain Amphitheater", "City": "Draper", "County": "Salt Lake", "Facility": "Recreation Center" }, "geometry": { "type": "Point", "coordinates": [ -111.862521784481928, 40.493241298731725 ] } },
{ "type": "Feature", "properties": { "OBJECTID": 78, "Name": "Amphitheater", "City": "Sandy", "County": "Salt Lake", "Facility": "Recreation Center" }, "geometry": { "type": "Point", "coordinates": [ -111.854750970998722, 40.581683370378819 ] } },
{ "type": "Feature", "properties": { "OBJECTID": 79, "Name": "South Jordan Rec Center", "City": "South Jordan", "County": "Salt Lake", "Facility": "Recreation Center" }, "geometry": { "type": "Point", "coordinates": [ -111.93957273341168, 40.558538790460879 ] } },
{ "type": "Feature", "properties": { "OBJECTID": 80, "Name": "W & M Butterfield", "City": "Herriman", "County": "Salt Lake", "Facility": "Recreation Center" }, "geometry": { "type": "Point", "coordinates": [ -112.039911164897532, 40.49504324322303 ] } },
{ "type": "Feature", "properties": { "OBJECTID": 81, "Name": "Daybreak Rec Center", "City": "South Jordan", "County": "Salt Lake", "Facility": "Recreation Center" }, "geometry": { "type": "Point", "coordinates": [ -111.986948098340307, 40.537460759589024 ] } },
{ "type": "Feature", "properties": { "OBJECTID": 82, "Name": "Kearns Oquirrh Rec Center", "City": null, "County": "Salt Lake", "Facility": "Recreation Center" }, "geometry": { "type": "Point", "coordinates": [ -112.008712172023493, 40.647421524556272 ] } },
{ "type": "Feature", "properties": { "OBJECTID": 83, "Name": "Community Center", "City": "Salt Lake City", "County": "Salt Lake", "Facility": "Recreation Center" }, "geometry": { "type": "Point", "coordinates": [ -112.108880189506678, 40.707166168231829 ] } },
{ "type": "Feature", "properties": { "OBJECTID": 84, "Name": "Marshall White", "City": "Ogden", "County": "Weber", "Facility": "Recreation Center" }, "geometry": { "type": "Point", "coordinates": [ -111.97483393315332, 41.215109105625984 ] } },
{ "type": "Feature", "properties": { "OBJECTID": 85, "Name": "Steiner Aquatics", "City": "Salt Lake City", "County": "Salt Lake", "Facility": "Recreation Center" }, "geometry": { "type": "Point", "coordinates": [ -111.844060447789175, 40.755110271301206 ] } },
{ "type": "Feature", "properties": { "OBJECTID": 86, "Name": "Gale Center", "City": "South Jordan", "County": "Salt Lake", "Facility": "Recreation Center" }, "geometry": { "type": "Point", "coordinates": [ -111.935805541368211, 40.56440010692895 ] } },
{ "type": "Feature", "properties": { "OBJECTID": 87, "Name": "Clyde Recreation Center", "City": "Springville", "County": "Utah", "Facility": "Recreation Center" }, "geometry": { "type": "Point", "coordinates": [ -111.631805524310593, 40.156910947816122 ] } },
{ "type": "Feature", "properties": { "OBJECTID": 88, "Name": "Provo Recreation Center", "City": "Provo", "County": "Utah", "Facility": "Recreation Center" }, "geometry": { "type": "Point", "coordinates": [ -111.664309232099896, 40.241660771703216 ] } },
{ "type": "Feature", "properties": { "OBJECTID": 89, "Name": "Orem Fitness Center", "City": "Orem", "County": "Utah", "Facility": "Recreation Center" }, "geometry": { "type": "Point", "coordinates": [ -111.709552075595781, 40.295048367685119 ] } },
{ "type": "Feature", "properties": { "OBJECTID": 90, "Name": "Pleasant Grove Recreation Center", "City": "Pleasant Grove", "County": "Utah", "Facility": "Recreation Center" }, "geometry": { "type": "Point", "coordinates": [ -111.727735986477654, 40.358268202888254 ] } },
{ "type": "Feature", "properties": { "OBJECTID": 91, "Name": "American Fork Fitness Center", "City": "American Fork", "County": "Utah", "Facility": "Recreation Center" }, "geometry": { "type": "Point", "coordinates": [ -111.797403622798427, 40.386366471046529 ] } },
{ "type": "Feature", "properties": { "OBJECTID": 92, "Name": "Lehi Legacy Center", "City": "Lehi", "County": "Utah", "Facility": "Recreation Center" }, "geometry": { "type": "Point", "coordinates": [ -111.850214599188149, 40.389743850527772 ] } },
{ "type": "Feature", "properties": { "OBJECTID": 93, "Name": "American Fork City Library", "City": "American Fork", "County": "Utah", "Facility": "Library" }, "geometry": { "type": "Point", "coordinates": [ -111.796564643035452, 40.37548165391415 ] } },
{ "type": "Feature", "properties": { "OBJECTID": 94, "Name": "Box Elder County Bookmobile Library", "City": "Willard", "County": "Box Elder", "Facility": "Library" }, "geometry": { "type": "Point", "coordinates": [ -112.038157563631387, 41.408333008518184 ] } },
{ "type": "Feature", "properties": { "OBJECTID": 95, "Name": "Brigham City Library", "City": "Brigham City", "County": "Box Elder", "Facility": "Library" }, "geometry": { "type": "Point", "coordinates": [ -112.014355219755075, 41.510641746923774 ] } },
{ "type": "Feature", "properties": { "OBJECTID": 96, "Name": "Davis County Library", "City": "Farmington", "County": "Davis", "Facility": "Library" }, "geometry": { "type": "Point", "coordinates": [ -111.885572418128504, 40.979860529990809 ] } },
{ "type": "Feature", "properties": { "OBJECTID": 97, "Name": "Eagle Mountain Public Library", "City": "Eagle Mountain", "County": "Utah", "Facility": "Library" }, "geometry": { "type": "Point", "coordinates": [ -112.012203035099063, 40.30936715074256 ] } },
{ "type": "Feature", "properties": { "OBJECTID": 98, "Name": "Lehi City Public Library", "City": "Lehi", "County": "Utah", "Facility": "Library" }, "geometry": { "type": "Point", "coordinates": [ -111.84911470824251, 40.389242028928273 ] } },
{ "type": "Feature", "properties": { "OBJECTID": 99, "Name": "Murray Public Library", "City": "Murray", "County": "Salt Lake", "Facility": "Library" }, "geometry": { "type": "Point", "coordinates": [ -111.886124184037257, 40.655989300876954 ] } },
{ "type": "Feature", "properties": { "OBJECTID": 100, "Name": "Orem Public Library", "City": "Orem", "County": "Utah", "Facility": "Library" }, "geometry": { "type": "Point", "coordinates": [ -111.695274937884562, 40.298254336581984 ] } },
{ "type": "Feature", "properties": { "OBJECTID": 101, "Name": "Payson City Library", "City": "Payson", "County": "Utah", "Facility": "Library" }, "geometry": { "type": "Point", "coordinates": [ -111.732294411928436, 40.042908197905113 ] } },
{ "type": "Feature", "properties": { "OBJECTID": 102, "Name": "Pleasant Grove Public Library", "City": "Pleasant Grove", "County": "Utah", "Facility": "Library" }, "geometry": { "type": "Point", "coordinates": [ -111.73969732487862, 40.363787185336093 ] } },
{ "type": "Feature", "properties": { "OBJECTID": 103, "Name": "Provo City Library", "City": "Provo", "County": "Utah", "Facility": "Library" }, "geometry": { "type": "Point", "coordinates": [ -111.658510607839233, 40.241099216461421 ] } },
{ "type": "Feature", "properties": { "OBJECTID": 104, "Name": "Salt Lake City Public Library", "City": "Salt Lake City", "County": "Salt Lake", "Facility": "Library" }, "geometry": { "type": "Point", "coordinates": [ -111.884974901022332, 40.760377303711927 ] } },
{ "type": "Feature", "properties": { "OBJECTID": 105, "Name": "Salt Lake County Library", "City": "Cottonwood Heights", "County": "Salt Lake", "Facility": "Library" }, "geometry": { "type": "Point", "coordinates": [ -111.827985550327384, 40.624247316724905 ] } },
{ "type": "Feature", "properties": { "OBJECTID": 106, "Name": "Santaquin City Library", "City": "Santaquin", "County": "Utah", "Facility": "Library" }, "geometry": { "type": "Point", "coordinates": [ -111.785740007642204, 39.974151472555207 ] } },
{ "type": "Feature", "properties": { "OBJECTID": 107, "Name": "Spanish Fork Public Library", "City": "Spanish Fork", "County": "Utah", "Facility": "Library" }, "geometry": { "type": "Point", "coordinates": [ -111.654595500099404, 40.109189123635588 ] } },
{ "type": "Feature", "properties": { "OBJECTID": 108, "Name": "Springville Public Library", "City": "Springville", "County": "Utah", "Facility": "Library" }, "geometry": { "type": "Point", "coordinates": [ -111.610466315129244, 40.167315265750297 ] } },
{ "type": "Feature", "properties": { "OBJECTID": 109, "Name": "Utah County Bookmobile Library", "City": "Mapleton", "County": "Utah", "Facility": "Library" }, "geometry": { "type": "Point", "coordinates": [ -111.57980163299969, 40.134106239624145 ] } },
{ "type": "Feature", "properties": { "OBJECTID": 110, "Name": "Weber County Library System", "City": "Ogden", "County": "Weber", "Facility": "Library" }, "geometry": { "type": "Point", "coordinates": [ -111.964765363920648, 41.221203460755959 ] } },
{ "type": "Feature", "properties": { "OBJECTID": 111, "Name": "Davis-Central Branch", "City": "Layton", "County": "Davis", "Facility": "Library" }, "geometry": { "type": "Point", "coordinates": [ -111.961392153197835, 41.062149528776445 ] } },
{ "type": "Feature", "properties": { "OBJECTID": 112, "Name": "Davis-North Branch", "City": "Clearfield", "County": "Davis", "Facility": "Library" }, "geometry": { "type": "Point", "coordinates": [ -112.006988207076915, 41.105564685965014 ] } },
{ "type": "Feature", "properties": { "OBJECTID": 113, "Name": "Davis-Syracuse/N.W.  Branch", "City": "Syracuse", "County": "Davis", "Facility": "Library" }, "geometry": { "type": "Point", "coordinates": [ -112.06455252626607, 41.087144896219179 ] } },
{ "type": "Feature", "properties": { "OBJECTID": 114, "Name": "Davis-Centerville Branch", "City": "Centerville", "County": "Davis", "Facility": "Library" }, "geometry": { "type": "Point", "coordinates": [ -111.885440811346129, 40.916777075459656 ] } },
{ "type": "Feature", "properties": { "OBJECTID": 115, "Name": "Davis-Kaysville Branch", "City": "Kaysville", "County": "Davis", "Facility": "Library" }, "geometry": { "type": "Point", "coordinates": [ -111.938486513027996, 41.035667487973001 ] } },
{ "type": "Feature", "properties": { "OBJECTID": 116, "Name": "Salt Lake City-Anderson Branch", "City": "Salt Lake City", "County": "Salt Lake", "Facility": "Library" }, "geometry": { "type": "Point", "coordinates": [ -111.830598000293946, 40.744310368760978 ] } },
{ "type": "Feature", "properties": { "OBJECTID": 117, "Name": "Salt Lake City-Chapman Branch", "City": "Salt Lake City", "County": "Salt Lake", "Facility": "Library" }, "geometry": { "type": "Point", "coordinates": [ -111.916301778060216, 40.75658601304486 ] } },
{ "type": "Feature", "properties": { "OBJECTID": 118, "Name": "Salt Lake City-Day/Riverside Branch", "City": "Salt Lake City", "County": "Salt Lake", "Facility": "Library" }, "geometry": { "type": "Point", "coordinates": [ -111.936069054970275, 40.79054269055711 ] } },
{ "type": "Feature", "properties": { "OBJECTID": 119, "Name": "Salt Lake City-Sprague Branch", "City": "Salt Lake City", "County": "Salt Lake", "Facility": "Library" }, "geometry": { "type": "Point", "coordinates": [ -111.859563069007621, 40.72465252340217 ] } },
{ "type": "Feature", "properties": { "OBJECTID": 120, "Name": "Salt Lake City-Sweet Branch", "City": "Salt Lake City", "County": "Salt Lake", "Facility": "Library" }, "geometry": { "type": "Point", "coordinates": [ -111.876491728908704, 40.779928028573664 ] } },
{ "type": "Feature", "properties": { "OBJECTID": 121, "Name": "Salt Lake County-Bingham Branch", "City": "West Jordan", "County": "Salt Lake", "Facility": "Library" }, "geometry": { "type": "Point", "coordinates": [ -112.00646268814414, 40.588097850068579 ] } },
{ "type": "Feature", "properties": { "OBJECTID": 122, "Name": "Salt Lake County-C. Smith Branch", "City": "Salt Lake City", "County": "Salt Lake", "Facility": "Library" }, "geometry": { "type": "Point", "coordinates": [ -111.868059474203704, 40.699984828468956 ] } },
{ "type": "Feature", "properties": { "OBJECTID": 123, "Name": "Salt Lake County-Columbus Branch", "City": "Salt Lake City", "County": "Salt Lake", "Facility": "Library" }, "geometry": { "type": "Point", "coordinates": [ -111.876993899728944, 40.71551288070895 ] } },
{ "type": "Feature", "properties": { "OBJECTID": 124, "Name": "Salt Lake County-Draper Branch", "City": "Draper", "County": "Salt Lake", "Facility": "Library" }, "geometry": { "type": "Point", "coordinates": [ -111.858267987625467, 40.524525858463356 ] } },
{ "type": "Feature", "properties": { "OBJECTID": 125, "Name": "Salt Lake County-E. Milcreek Branch", "City": "Salt Lake City", "County": "Salt Lake", "Facility": "Library" }, "geometry": { "type": "Point", "coordinates": [ -111.825688419805331, 40.696688635142571 ] } },
{ "type": "Feature", "properties": { "OBJECTID": 126, "Name": "Salt Lake County-Herriman Branch", "City": "Herriman", "County": "Salt Lake", "Facility": "Library" }, "geometry": { "type": "Point", "coordinates": [ -112.018765577694197, 40.516535811601095 ] } },
{ "type": "Feature", "properties": { "OBJECTID": 127, "Name": "Salt Lake County-Holladay Branch", "City": "Holladay", "County": "Salt Lake", "Facility": "Library" }, "geometry": { "type": "Point", "coordinates": [ -111.829263441548292, 40.666463495875476 ] } },
{ "type": "Feature", "properties": { "OBJECTID": 128, "Name": "Salt Lake County-Hunter Branch", "City": "West Valley City", "County": "Salt Lake", "Facility": "Library" }, "geometry": { "type": "Point", "coordinates": [ -112.004287699754627, 40.682192676632297 ] } },
{ "type": "Feature", "properties": { "OBJECTID": 129, "Name": "Salt Lake County- Kearns Branch", "City": "Kearns", "County": "Salt Lake", "Facility": "Library" }, "geometry": { "type": "Point", "coordinates": [ -111.991770953674745, 40.65381133092329 ] } },
{ "type": "Feature", "properties": { "OBJECTID": 130, "Name": "Salt Lake County-Park Branch", "City": "Taylorsville", "County": "Salt Lake", "Facility": "Library" }, "geometry": { "type": "Point", "coordinates": [ -111.958202837495165, 40.663390738237688 ] } },
{ "type": "Feature", "properties": { "OBJECTID": 131, "Name": "Salt Lake County-Riverton Branch", "City": "Riverton", "County": "Salt Lake", "Facility": "Library" }, "geometry": { "type": "Point", "coordinates": [ -111.941074100322453, 40.517242160769129 ] } },
{ "type": "Feature", "properties": { "OBJECTID": 132, "Name": "Salt Lake County-R. Tyler Branch", "City": "Midvale", "County": "Salt Lake", "Facility": "Library" }, "geometry": { "type": "Point", "coordinates": [ -111.893256110300513, 40.605168801999412 ] } },
{ "type": "Feature", "properties": { "OBJECTID": 133, "Name": "Salt Lake County-Sandy Branch", "City": "Sandy", "County": "Salt Lake", "Facility": "Library" }, "geometry": { "type": "Point", "coordinates": [ -111.850833720776933, 40.567717023262865 ] } },
{ "type": "Feature", "properties": { "OBJECTID": 134, "Name": "Salt Lake County-S. Jordan Branch", "City": "South Jordan", "County": "Salt Lake", "Facility": "Library" }, "geometry": { "type": "Point", "coordinates": [ -111.93635975788105, 40.557168976182922 ] } },
{ "type": "Feature", "properties": { "OBJECTID": 135, "Name": "Salt Lake County-W. Jordan Branch", "City": "West Jordan", "County": "Salt Lake", "Facility": "Library" }, "geometry": { "type": "Point", "coordinates": [ -111.942407111270867, 40.605274219872236 ] } },
{ "type": "Feature", "properties": { "OBJECTID": 136, "Name": "Salt Lake County- W. Valley Branch", "City": "West Valley City", "County": "Salt Lake", "Facility": "Library" }, "geometry": { "type": "Point", "coordinates": [ -111.961388863567265, 40.693051932708293 ] } },
{ "type": "Feature", "properties": { "OBJECTID": 137, "Name": "Salt Lake County-Whitmore Branch", "City": "Cottonwood Heights", "County": "Salt Lake", "Facility": "Library" }, "geometry": { "type": "Point", "coordinates": [ -111.827984356466374, 40.624246424907518 ] } },
{ "type": "Feature", "properties": { "OBJECTID": 138, "Name": "Weber County-North Branch", "City": "North Ogden", "County": "Weber", "Facility": "Library" }, "geometry": { "type": "Point", "coordinates": [ -111.965503921017998, 41.305735940432612 ] } },
{ "type": "Feature", "properties": { "OBJECTID": 139, "Name": "Weber County-Ogden Valley Branch", "City": "Huntsville", "County": "Weber", "Facility": "Library" }, "geometry": { "type": "Point", "coordinates": [ -111.770322195471408, 41.261830534111184 ] } },
{ "type": "Feature", "properties": { "OBJECTID": 140, "Name": "Weber County-Southwest Branch", "City": "Roy", "County": "Weber", "Facility": "Library" }, "geometry": { "type": "Point", "coordinates": [ -112.02751646483047, 41.176282187094913 ] } },
{ "type": "Feature", "properties": { "OBJECTID": 141, "Name": "Brigham Young University - Harold B. Lee Library", "City": "Provo", "County": "Utah", "Facility": "Library" }, "geometry": { "type": "Point", "coordinates": [ -111.649257661273808, 40.249255022475992 ] } },
{ "type": "Feature", "properties": { "OBJECTID": 142, "Name": "Brigham Young University - Hunter Law Library", "City": "Provo", "County": "Utah", "Facility": "Library" }, "geometry": { "type": "Point", "coordinates": [ -111.645381573654973, 40.24973897128767 ] } },
{ "type": "Feature", "properties": { "OBJECTID": 143, "Name": "BYU Salt Lake Center Library", "City": "Salt Lake City", "County": "Salt Lake", "Facility": "Library" }, "geometry": { "type": "Point", "coordinates": [ -111.901042710776522, 40.771109039937997 ] } },
{ "type": "Feature", "properties": { "OBJECTID": 144, "Name": "Church History Library & Archives", "City": "Salt Lake City", "County": "Salt Lake", "Facility": "Library" }, "geometry": { "type": "Point", "coordinates": [ -111.889164771966534, 40.771670063660309 ] } },
{ "type": "Feature", "properties": { "OBJECTID": 145, "Name": "Davis County Library - South Branch (Bountiful)", "City": "Bountiful", "County": "Davis", "Facility": "Library" }, "geometry": { "type": "Point", "coordinates": [ -111.88004670833935, 40.881773055330022 ] } },
{ "type": "Feature", "properties": { "OBJECTID": 146, "Name": "Family History Library", "City": "Salt Lake City", "County": "Salt Lake", "Facility": "Library" }, "geometry": { "type": "Point", "coordinates": [ -111.894100774602606, 40.770125083282963 ] } },
{ "type": "Feature", "properties": { "OBJECTID": 147, "Name": "Highland City Library", "City": "Highland", "County": "Utah", "Facility": "Library" }, "geometry": { "type": "Point", "coordinates": [ -111.789035654230105, 40.428480016971854 ] } },
{ "type": "Feature", "properties": { "OBJECTID": 148, "Name": "Huntsman Cancer Learning Center", "City": "Salt Lake City", "County": "Salt Lake", "Facility": "Library" }, "geometry": { "type": "Point", "coordinates": [ -111.834514748357478, 40.77252008222812 ] } },
{ "type": "Feature", "properties": { "OBJECTID": 149, "Name": "LDS Business College Library", "City": "Salt Lake City", "County": "Salt Lake", "Facility": "Library" }, "geometry": { "type": "Point", "coordinates": [ -111.90025770538908, 40.771136066170712 ] } },
{ "type": "Feature", "properties": { "OBJECTID": 150, "Name": "Mountain West Digital Library", "City": "Salt Lake City", "County": "Salt Lake", "Facility": "Library" }, "geometry": { "type": "Point", "coordinates": [ -111.846042778092951, 40.762427022056613 ] } },
{ "type": "Feature", "properties": { "OBJECTID": 151, "Name": "Northwestern Band Of Shoshoni Nation Library", "City": "Brigham City", "County": "Box Elder", "Facility": "Library" }, "geometry": { "type": "Point", "coordinates": [ -112.015674888026567, 41.524988110793018 ] } },
{ "type": "Feature", "properties": { "OBJECTID": 152, "Name": "Salem City Library", "City": "Salem", "County": "Utah", "Facility": "Library" }, "geometry": { "type": "Point", "coordinates": [ -111.673343600590414, 40.053716941189649 ] } },
{ "type": "Feature", "properties": { "OBJECTID": 153, "Name": "Salt Lake Community College - Jordan Campus Library", "City": "West Jordan", "County": "Salt Lake", "Facility": "Library" }, "geometry": { "type": "Point", "coordinates": [ -111.973796716766728, 40.58508898064818 ] } },
{ "type": "Feature", "properties": { "OBJECTID": 154, "Name": "Salt Lake Community College - Markosian Library (Redwood Campus)", "City": "Taylorsville", "County": "Salt Lake", "Facility": "Library" }, "geometry": { "type": "Point", "coordinates": [ -111.939472688936803, 40.670392981928217 ] } },
{ "type": "Feature", "properties": { "OBJECTID": 155, "Name": "Salt Lake Community College - Miller Library", "City": "Sandy", "County": "Salt Lake", "Facility": "Library" }, "geometry": { "type": "Point", "coordinates": [ -111.901302753288334, 40.574576042616535 ] } },
{ "type": "Feature", "properties": { "OBJECTID": 156, "Name": "Salt Lake Community College - South City Campus Library", "City": "Salt Lake City", "County": "Salt Lake", "Facility": "Library" }, "geometry": { "type": "Point", "coordinates": [ -111.88795874327343, 40.734453039892422 ] } },
{ "type": "Feature", "properties": { "OBJECTID": 157, "Name": "Salt Lake County Library Services - Alta Reading Room", "City": "Alta", "County": "Salt Lake", "Facility": "Library" }, "geometry": { "type": "Point", "coordinates": [ -111.633541653344452, 40.591063030508707 ] } },
{ "type": "Feature", "properties": { "OBJECTID": 158, "Name": "Salt Lake County Library Services - Magna Library", "City": "Magna", "County": "Salt Lake", "Facility": "Library" }, "geometry": { "type": "Point", "coordinates": [ -112.104524436560411, 40.711358864223698 ] } },
{ "type": "Feature", "properties": { "OBJECTID": 159, "Name": "Saratoga Springs Library", "City": "Saratoga Springs", "County": "Utah", "Facility": "Library" }, "geometry": { "type": "Point", "coordinates": [ -111.913005706569194, 40.386195025596194 ] } },
{ "type": "Feature", "properties": { "OBJECTID": 160, "Name": "University Of Southern Nevada Library - Utah Campus", "City": "South Jordan", "County": "Salt Lake", "Facility": "Library" }, "geometry": { "type": "Point", "coordinates": [ -111.916805765273949, 40.553202054212811 ] } },
{ "type": "Feature", "properties": { "OBJECTID": 161, "Name": "University Of Utah - Eccles Health Sciences Library", "City": "Salt Lake City", "County": "Salt Lake", "Facility": "Library" }, "geometry": { "type": "Point", "coordinates": [ -111.835056729816174, 40.768572079086304 ] } },
{ "type": "Feature", "properties": { "OBJECTID": 162, "Name": "University Of Utah - Marriott Library", "City": "Salt Lake City", "County": "Salt Lake", "Facility": "Library" }, "geometry": { "type": "Point", "coordinates": [ -111.846248688125726, 40.762408035352202 ] } },
{ "type": "Feature", "properties": { "OBJECTID": 163, "Name": "University Of Utah - Quinney Law Library", "City": "Salt Lake City", "County": "Salt Lake", "Facility": "Library" }, "geometry": { "type": "Point", "coordinates": [ -111.851413773735658, 40.761874038278258 ] } },
{ "type": "Feature", "properties": { "OBJECTID": 164, "Name": "Utah Department Of Transportation - Lester Wire Library", "City": "Taylorsville", "County": "Salt Lake", "Facility": "Library" }, "geometry": { "type": "Point", "coordinates": [ -111.957836678795488, 40.671286003561157 ] } },
{ "type": "Feature", "properties": { "OBJECTID": 165, "Name": "Utah State Archives", "City": "Salt Lake City", "County": "Salt Lake", "Facility": "Library" }, "geometry": { "type": "Point", "coordinates": [ -111.904125720746777, 40.76169002504114 ] } },
{ "type": "Feature", "properties": { "OBJECTID": 166, "Name": "Utah State History", "City": "Salt Lake City", "County": "Salt Lake", "Facility": "Library" }, "geometry": { "type": "Point", "coordinates": [ -111.904674750387173, 40.762949066870824 ] } },
{ "type": "Feature", "properties": { "OBJECTID": 167, "Name": "Utah State Hospital Patient Library", "City": "Provo", "County": "Utah", "Facility": "Library" }, "geometry": { "type": "Point", "coordinates": [ -111.635654574436018, 40.233763041054331 ] } },
{ "type": "Feature", "properties": { "OBJECTID": 168, "Name": "Utah State Law Library", "City": "Salt Lake City", "County": "Salt Lake", "Facility": "Library" }, "geometry": { "type": "Point", "coordinates": [ -111.888393694957585, 40.759505051749592 ] } },
{ "type": "Feature", "properties": { "OBJECTID": 169, "Name": "Utah State Library", "City": "Salt Lake City", "County": "Salt Lake", "Facility": "Library" }, "geometry": { "type": "Point", "coordinates": [ -111.94736877158806, 40.775792994191569 ] } },
{ "type": "Feature", "properties": { "OBJECTID": 170, "Name": "Utah Valley University Library", "City": "Orem", "County": "Utah", "Facility": "Library" }, "geometry": { "type": "Point", "coordinates": [ -111.716075683409883, 40.280561975350793 ] } },
{ "type": "Feature", "properties": { "OBJECTID": 171, "Name": "Utah Valley University Library - Fire Science Campus (Provo Airport)", "City": "Provo", "County": "Utah", "Facility": "Library" }, "geometry": { "type": "Point", "coordinates": [ -111.714035448601209, 40.220178874214398 ] } },
{ "type": "Feature", "properties": { "OBJECTID": 172, "Name": "Weber County Library System - Pleasant Valley Branch", "City": "Washington Terrace", "County": "Weber", "Facility": "Library" }, "geometry": { "type": "Point", "coordinates": [ -111.968524765773978, 41.162440095264216 ] } },
{ "type": "Feature", "properties": { "OBJECTID": 173, "Name": "Weber State University - Davis Library", "City": "Layton", "County": "Davis", "Facility": "Library" }, "geometry": { "type": "Point", "coordinates": [ -111.987522856628772, 41.099726088696244 ] } },
{ "type": "Feature", "properties": { "OBJECTID": 174, "Name": "Weber State University - Stewart Library", "City": "Ogden", "County": "Weber", "Facility": "Library" }, "geometry": { "type": "Point", "coordinates": [ -111.94316014471903, 41.192210760551752 ] } },
{ "type": "Feature", "properties": { "OBJECTID": 175, "Name": "Westminster College - Giovale Library", "City": "Salt Lake City", "County": "Salt Lake", "Facility": "Library" }, "geometry": { "type": "Point", "coordinates": [ -111.855747764994177, 40.731428070239701 ] } }
]
}
