{
"type": "FeatureCollection",
"name": "GroceryStores",
"crs": { "type": "name", "properties": { "name": "urn:ogc:def:crs:OGC:1.3:CRS84" } },
"features": [
{ "type": "Feature", "properties": { "OBJECTID": 2321, "NAME": "APPLE CREEK BULK FOOD CO", "NBR": null, "STREETADDR": "875 N MAIN", "CITY": "WILLARD", "ZIP": "84340", "TYPE": "Grocery Store", "GCSCORE": 90.919998168945298, "GCMETHOD": "AddressPoints.AddressGrid", "DAFID": "R100050", "POINT_X": 413409.32390850299, "POINT_Y": 4586415.8982494501 }, "geometry": { "type": "Point", "coordinates": [ -112.036272153381546, 41.424642006413919 ] } },
{ "type": "Feature", "properties": { "OBJECTID": 2327, "NAME": "TRADER JOE`S COMPANY", "NBR": null, "STREETADDR": "634 E 400 S", "CITY": "SALT LAKE CITY", "ZIP": "84101", "TYPE": "Grocery Store", "GCSCORE": 100.0, "GCMETHOD": "AddressPoints.AddressGrid", "DAFID": "R100331", "POINT_X": 426321.43633774901, "POINT_Y": 4512467.8432558496 }, "geometry": { "type": "Point", "coordinates": [ -111.872904024177458, 40.759877577495359 ] } },
{ "type": "Feature", "properties": { "OBJECTID": 2330, "NAME": "CANYON MARKET", "NBR": null, "STREETADDR": "95 ZION PARK BLVD", "CITY": "SPRINGDALE", "ZIP": "84767", "TYPE": "Grocery Store", "GCSCORE": 100.0, "GCMETHOD": "AddressPoints.AddressGrid", "DAFID": "R100815", "POINT_X": 323477.58334397402, "POINT_Y": 4118817.58523945 }, "geometry": { "type": "Point", "coordinates": [ -112.989022288727384, 37.199148064132565 ] } },
{ "type": "Feature", "properties": { "OBJECTID": 2332, "NAME": "WAL-MART STORE", "NBR": "5763", "STREETADDR": "3590 W S JORDAN PKWY", "CITY": "SOUTH JORDAN", "ZIP": "84095", "TYPE": "Supermarket", "GCSCORE": 100.0, "GCMETHOD": "AddressPoints.AddressGrid", "DAFID": "R101090", "POINT_X": 417409.85004011, "POINT_Y": 4490693.7699007504 }, "geometry": { "type": "Point", "coordinates": [ -111.975607169612331, 40.562901444581335 ] } },
{ "type": "Feature", "properties": { "OBJECTID": 2338, "NAME": "PACIFIC FOOD INC", "NBR": null, "STREETADDR": "3550 S 4800 W STE 0", "CITY": "WEST VALLEY CITY", "ZIP": "84120", "TYPE": "Grocery Store", "GCSCORE": 100.0, "GCMETHOD": "AddressPoints.AddressGrid", "DAFID": "R102313", "POINT_X": 414982.10501411301, "POINT_Y": 4505445.2858216697 }, "geometry": { "type": "Point", "coordinates": [ -112.006274033392515, 40.69552907625723 ] } },
{ "type": "Feature", "properties": { "OBJECTID": 2345, "NAME": "LAKEVIEW MARKET", "NBR": null, "STREETADDR": "485 N BEAR LK BLVD", "CITY": "GARDEN CITY", "ZIP": "84028", "TYPE": "Supermarket", "GCSCORE": 100.0, "GCMETHOD": "Centerlines.StatewideRoads", "DAFID": "R103325", "POINT_X": 467119.46040859103, "POINT_Y": 4644873.90700546 }, "geometry": { "type": "Point", "coordinates": [ -111.396746587445762, 41.955163270101401 ] } },
{ "type": "Feature", "properties": { "OBJECTID": 2349, "NAME": "RIDLEYS FAMILY MARKETS", "NBR": null, "STREETADDR": "5353 W 11000 N", "CITY": "HIGHLAND", "ZIP": "84003", "TYPE": "Supermarket", "GCSCORE": 100.0, "GCMETHOD": "AddressPoints.AddressGrid", "DAFID": "R103778", "POINT_X": 433274.76606503403, "POINT_Y": 4475883.7254167804 }, "geometry": { "type": "Point", "coordinates": [ -111.786659722865494, 40.430920927108076 ] } },
{ "type": "Feature", "properties": { "OBJECTID": 2358, "NAME": "OCEAN CITY SEAFOOD MARKET", "NBR": null, "STREETADDR": "872 S STATE", "CITY": "SALT LAKE CITY", "ZIP": "84101", "TYPE": "Supermarket", "GCSCORE": 90.919998168945298, "GCMETHOD": "AddressPoints.AddressGrid", "DAFID": "R104391", "POINT_X": 424993.712265165, "POINT_Y": 4511418.0254419101 }, "geometry": { "type": "Point", "coordinates": [ -111.888506431788556, 40.750301242317768 ] } },
{ "type": "Feature", "properties": { "OBJECTID": 2359, "NAME": "CLIFFORD FAMILY FARM", "NBR": null, "STREETADDR": "1461 N 2100 W", "CITY": "PROVO", "ZIP": "84604", "TYPE": "Grocery Store", "GCSCORE": 100.0, "GCMETHOD": "AddressPoints.AddressGrid", "DAFID": "R104409", "POINT_X": 440890.79533217498, "POINT_Y": 4456124.1957349004 }, "geometry": { "type": "Point", "coordinates": [ -111.695047626961724, 40.253491200475082 ] } },
{ "type": "Feature", "properties": { "OBJECTID": 2361, "NAME": "MEIERS MEATS & FINE FOODS INC", "NBR": null, "STREETADDR": "5521 W TIMPANOGOS HWY", "CITY": "HIGHLAND", "ZIP": "84003", "TYPE": "Supermarket", "GCSCORE": 100.0, "GCMETHOD": "Centerlines.StatewideRoads", "DAFID": "R104438", "POINT_X": 432936.84052388702, "POINT_Y": 4475980.3020837102 }, "geometry": { "type": "Point", "coordinates": [ -111.790653534667541, 40.431763732364885 ] } },
{ "type": "Feature", "properties": { "OBJECTID": 2362, "NAME": "SPROUTS FARMERS MARKET", "NBR": null, "STREETADDR": "1785 E MURRAY RD", "CITY": "HOLLADAY", "ZIP": "84117", "TYPE": "Grocery Store", "GCSCORE": null, "GCMETHOD": "Manually Placed", "DAFID": "R104523", "POINT_X": 428936.0, "POINT_Y": 4502134.0 }, "geometry": { "type": "Point", "coordinates": [ -111.840759383554428, 40.667023382900531 ] } },
{ "type": "Feature", "properties": { "OBJECTID": 2363, "NAME": "WAL-MART", "NBR": "4100", "STREETADDR": "2255 N UNIVERSITY PKWY", "CITY": "PROVO", "ZIP": "84604", "TYPE": "Supermarket", "GCSCORE": 100.0, "GCMETHOD": "AddressPoints.AddressGrid", "DAFID": "R104594", "POINT_X": 443039.67347372498, "POINT_Y": 4457166.5652183797 }, "geometry": { "type": "Point", "coordinates": [ -111.669874014173004, 40.263030640191154 ] } },
{ "type": "Feature", "properties": { "OBJECTID": 2368, "NAME": "MI PUEBLITO LLC", "NBR": null, "STREETADDR": "401 N ARIA BLVD", "CITY": "WENDOVER", "ZIP": "84083", "TYPE": "Grocery Store", "GCSCORE": 100.0, "GCMETHOD": "AddressPoints.AddressGrid", "DAFID": "R104684", "POINT_X": 243095.145385162, "POINT_Y": 4514573.6046134401 }, "geometry": { "type": "Point", "coordinates": [ -114.042652867329267, 40.742020811254882 ] } },
{ "type": "Feature", "properties": { "OBJECTID": 2370, "NAME": "RIDLEY`S FAMILY MARKETS", "NBR": null, "STREETADDR": "4045 E PONY EXPRESS PKWY", "CITY": "EAGLE MOUNTAIN", "ZIP": "84005", "TYPE": "Supermarket", "GCSCORE": 100.0, "GCMETHOD": "AddressPoints.AddressGrid", "DAFID": "R104749", "POINT_X": 417953.06304514402, "POINT_Y": 4468599.7594278604 }, "geometry": { "type": "Point", "coordinates": [ -111.966334311469723, 40.363937292913029 ] } },
{ "type": "Feature", "properties": { "OBJECTID": 2378, "NAME": "WAL-MART", "NBR": "4706", "STREETADDR": "3555 S 8400 W", "CITY": "MAGNA", "ZIP": "84044", "TYPE": "Supermarket", "GCSCORE": 100.0, "GCMETHOD": "AddressPoints.AddressGrid", "DAFID": "R105105", "POINT_X": 407896.01401725999, "POINT_Y": 4505490.9085859703 }, "geometry": { "type": "Point", "coordinates": [ -112.090137803573867, 40.695178445182961 ] } },
{ "type": "Feature", "properties": { "OBJECTID": 2381, "NAME": "RIDLEYS FAMILY MARKETS", "NBR": null, "STREETADDR": "46 W MAIN ST", "CITY": "MIDWAY", "ZIP": "84049", "TYPE": "Grocery Store", "GCSCORE": 100.0, "GCMETHOD": "Centerlines.StatewideRoads", "DAFID": "R105467", "POINT_X": 459905.96007989801, "POINT_Y": 4484730.1043184502 }, "geometry": { "type": "Point", "coordinates": [ -111.473264684372609, 40.512326159459754 ] } },
{ "type": "Feature", "properties": { "OBJECTID": 2382, "NAME": "HARMONS", "NBR": "91", "STREETADDR": "5370 S 1900 W", "CITY": "ROY", "ZIP": "84067", "TYPE": "Supermarket", "GCSCORE": 100.0, "GCMETHOD": "AddressPoints.AddressGrid", "DAFID": "R10548", "POINT_X": 414075.65015879599, "POINT_Y": 4557733.7698785504 }, "geometry": { "type": "Point", "coordinates": [ -112.024249299982898, 41.166393241086162 ] } },
{ "type": "Feature", "properties": { "OBJECTID": 2384, "NAME": "HARMONS", "NBR": "01", "STREETADDR": "3955 W 3500 S", "CITY": "WEST VALLEY CITY", "ZIP": "84120", "TYPE": "Supermarket", "GCSCORE": 100.0, "GCMETHOD": "AddressPoints.AddressGrid", "DAFID": "R10559", "POINT_X": 416719.59167757002, "POINT_Y": 4505441.9166703299 }, "geometry": { "type": "Point", "coordinates": [ -111.985711622022166, 40.695676163759899 ] } },
{ "type": "Feature", "properties": { "OBJECTID": 2385, "NAME": "HARMONS", "NBR": null, "STREETADDR": "1189 E 700 S", "CITY": "SAINT GEORGE", "ZIP": "84790", "TYPE": "Supermarket", "GCSCORE": 100.0, "GCMETHOD": "AddressPoints.AddressGrid", "DAFID": "R10567", "POINT_X": 272640.40299572801, "POINT_Y": 4108745.3819915699 }, "geometry": { "type": "Point", "coordinates": [ -113.558324719752449, 37.097448168797243 ] } },
{ "type": "Feature", "properties": { "OBJECTID": 2389, "NAME": "HARMONS", "NBR": null, "STREETADDR": "3270 S 1300 E", "CITY": "SALT LAKE CITY", "ZIP": "84106", "TYPE": "Supermarket", "GCSCORE": 100.0, "GCMETHOD": "Centerlines.StatewideRoads", "DAFID": "R10574", "POINT_X": 427835.88620005001, "POINT_Y": 4505837.5273499796 }, "geometry": { "type": "Point", "coordinates": [ -111.854199356404692, 40.700288258649991 ] } },
{ "type": "Feature", "properties": { "OBJECTID": 2390, "NAME": "ABDI BRO`S MARKET", "NBR": null, "STREETADDR": "3505 S MAIN ST", "CITY": "SALT LAKE CITY", "ZIP": "84115", "TYPE": "Grocery Store", "GCSCORE": 100.0, "GCMETHOD": "Centerlines.StatewideRoads", "DAFID": "R105763", "POINT_X": 424725.10574756301, "POINT_Y": 4505296.8773197196 }, "geometry": { "type": "Point", "coordinates": [ -111.890952202257779, 40.695139929686064 ] } },
{ "type": "Feature", "properties": { "OBJECTID": 2392, "NAME": "BOOMERS DISCOUNT MARKETS", "NBR": null, "STREETADDR": "855 S BLUFF ST", "CITY": "ST GEORGE", "ZIP": "84770", "TYPE": "Grocery Store", "GCSCORE": 100.0, "GCMETHOD": "AddressPoints.AddressGrid", "DAFID": "R105882", "POINT_X": 270269.376658094, "POINT_Y": 4108297.6537985499 }, "geometry": { "type": "Point", "coordinates": [ -113.584842602852746, 37.092837885208276 ] } },
{ "type": "Feature", "properties": { "OBJECTID": 2397, "NAME": "WAL-MART", "NBR": "4700", "STREETADDR": "1707 W STATE ST", "CITY": "PLEASANT GROVE", "ZIP": "84062", "TYPE": "Supermarket", "GCSCORE": 100.0, "GCMETHOD": "AddressPoints.AddressGrid", "DAFID": "R106210", "POINT_X": 435025.945126626, "POINT_Y": 4468826.1260241801 }, "geometry": { "type": "Point", "coordinates": [ -111.765295561281434, 40.367482103157975 ] } },
{ "type": "Feature", "properties": { "OBJECTID": 2404, "NAME": "MARIAS MARKET 2 INC", "NBR": null, "STREETADDR": "4984 S REDWOOD RD", "CITY": "TAYLORSVILLE", "ZIP": "84118", "TYPE": "Grocery Store", "GCSCORE": 100.0, "GCMETHOD": "AddressPoints.AddressGrid", "DAFID": "R107266", "POINT_X": 420591.52621245198, "POINT_Y": 4501526.6356366202 }, "geometry": { "type": "Point", "coordinates": [ -111.939394000011376, 40.660791360020305 ] } },
{ "type": "Feature", "properties": { "OBJECTID": 2411, "NAME": "LITTLE POLYNESIA MARKET & FOOD", "NBR": null, "STREETADDR": "5419 W 3500 S - 2", "CITY": "WEST VALLEY CITY", "ZIP": "84120", "TYPE": "Grocery Store", "GCSCORE": 90.919998168945298, "GCMETHOD": "Centerlines.StatewideRoads", "DAFID": "R107401", "POINT_X": 413790.35389542702, "POINT_Y": 4508745.7503113803 }, "geometry": { "type": "Point", "coordinates": [ -112.020831473460234, 40.72513343698899 ] } },
{ "type": "Feature", "properties": { "OBJECTID": 2415, "NAME": "COSTCO WHOLESALE", "NBR": "1019", "STREETADDR": "3571 W 10400 S", "CITY": "SOUTH JORDAN", "ZIP": "84095", "TYPE": "Grocery Store", "GCSCORE": 100.0, "GCMETHOD": "Centerlines.StatewideRoads", "DAFID": "R107467", "POINT_X": 417354.34032859601, "POINT_Y": 4490570.9004897699 }, "geometry": { "type": "Point", "coordinates": [ -111.976246710756087, 40.561789143146576 ] } },
{ "type": "Feature", "properties": { "OBJECTID": 2425, "NAME": "CHINA TOWN SUPERMARKET", "NBR": null, "STREETADDR": "3390 S STATE ST - 11", "CITY": "SALT LAKE CITY", "ZIP": "84115", "TYPE": "Grocery Store", "GCSCORE": 90.919998168945298, "GCMETHOD": "AddressPoints.AddressGrid", "DAFID": "R107867", "POINT_X": 424802.05349655001, "POINT_Y": 4505614.2933124397 }, "geometry": { "type": "Point", "coordinates": [ -111.890079617996832, 40.698006121548048 ] } },
{ "type": "Feature", "properties": { "OBJECTID": 2430, "NAME": "SMITHS MARKETPLACE", "NBR": "279", "STREETADDR": "2434 N 400 E", "CITY": "NORTH OGDEN", "ZIP": "84414", "TYPE": "Supermarket", "GCSCORE": 100.0, "GCMETHOD": "AddressPoints.AddressGrid", "DAFID": "R108154", "POINT_X": 419030.745968248, "POINT_Y": 4572818.73432793 }, "geometry": { "type": "Point", "coordinates": [ -111.967192110679122, 41.302767310309953 ] } },
{ "type": "Feature", "properties": { "OBJECTID": 2431, "NAME": "SMITHS MARKETPLACE", "NBR": "274", "STREETADDR": "5710 W 7800 S", "CITY": "WEST JORDAN", "ZIP": "84081", "TYPE": "Supermarket", "GCSCORE": 100.0, "GCMETHOD": "Centerlines.StatewideRoads", "DAFID": "R108155", "POINT_X": 413151.10993626999, "POINT_Y": 4495924.5873209499 }, "geometry": { "type": "Point", "coordinates": [ -112.026626918658295, 40.609581924280775 ] } },
{ "type": "Feature", "properties": { "OBJECTID": 2432, "NAME": "UTAH CHARITIES DBA UTAH COOP", "NBR": null, "STREETADDR": "291 E 4500 S", "CITY": "MURRAY", "ZIP": "84107", "TYPE": "Grocery Store", "GCSCORE": 100.0, "GCMETHOD": "AddressPoints.AddressGrid", "DAFID": "R108291", "POINT_X": 425356.626945792, "POINT_Y": 4503021.8566507101 }, "geometry": { "type": "Point", "coordinates": [ -111.883207768667575, 40.674704755850151 ] } },
{ "type": "Feature", "properties": { "OBJECTID": 2436, "NAME": "GOOD EARTH NATURAL FOODS", "NBR": null, "STREETADDR": "863 N 700 E", "CITY": "SPANISH FORK", "ZIP": "84660", "TYPE": "Grocery Store", "GCSCORE": 100.0, "GCMETHOD": "Centerlines.StatewideRoads", "DAFID": "R108660", "POINT_X": 445218.01999659103, "POINT_Y": 4441360.5262969099 }, "geometry": { "type": "Point", "coordinates": [ -111.642911418644786, 40.12078061360603 ] } },
{ "type": "Feature", "properties": { "OBJECTID": 2437, "NAME": "WALMART MARKET", "NBR": "7043", "STREETADDR": "1202 W 12600 S", "CITY": "RIVERTON", "ZIP": "84065", "TYPE": "Supermarket", "GCSCORE": 100.0, "GCMETHOD": "AddressPoints.AddressGrid", "DAFID": "R108661", "POINT_X": 421554.80417197797, "POINT_Y": 4486238.1855836296 }, "geometry": { "type": "Point", "coordinates": [ -111.926097610988577, 40.523169694534083 ] } },
{ "type": "Feature", "properties": { "OBJECTID": 2438, "NAME": "WAL-MART", "NBR": "7168", "STREETADDR": "5056 W 13400 S", "CITY": "HERRIMAN", "ZIP": "84096", "TYPE": "Supermarket", "GCSCORE": 100.0, "GCMETHOD": "AddressPoints.AddressGrid", "DAFID": "R108751", "POINT_X": 414310.084619603, "POINT_Y": 4484731.7433464602 }, "geometry": { "type": "Point", "coordinates": [ -112.011410128593809, 40.508883008461886 ] } },
{ "type": "Feature", "properties": { "OBJECTID": 2443, "NAME": "SPROUTS FARMERS MARKET", "NBR": "605", "STREETADDR": "11519 S 4000 W", "CITY": "SOUTH JORDAN", "ZIP": "84095", "TYPE": "Grocery Store", "GCSCORE": 100.0, "GCMETHOD": "AddressPoints.AddressGrid", "DAFID": "R108881", "POINT_X": 416580.37054757, "POINT_Y": 4488313.0676945802 }, "geometry": { "type": "Point", "coordinates": [ -111.985089741093901, 40.541373820626916 ] } },
{ "type": "Feature", "properties": { "OBJECTID": 2448, "NAME": "WAL-MART", "NBR": "4068", "STREETADDR": "1206 N CANYON CRK PKWY", "CITY": "SPANISH FORK", "ZIP": "84660", "TYPE": "Supermarket", "GCSCORE": 100.0, "GCMETHOD": "AddressPoints.AddressGrid", "DAFID": "R109251", "POINT_X": 445534.51612332498, "POINT_Y": 4441720.0086891102 }, "geometry": { "type": "Point", "coordinates": [ -111.639227645407303, 40.124039759564845 ] } },
{ "type": "Feature", "properties": { "OBJECTID": 2450, "NAME": "PETERSEN FAMILY FARM", "NBR": null, "STREETADDR": "11887 S 4000 W", "CITY": "RIVERTON", "ZIP": "84096", "TYPE": "Grocery Store", "GCSCORE": 100.0, "GCMETHOD": "AddressPoints.AddressGrid", "DAFID": "R109333", "POINT_X": 416508.63686033699, "POINT_Y": 4487626.8258616403 }, "geometry": { "type": "Point", "coordinates": [ -111.985846076349063, 40.535185178170551 ] } },
{ "type": "Feature", "properties": { "OBJECTID": 2452, "NAME": "MUSE GROCERY DBA PICK & RAIL", "NBR": null, "STREETADDR": "101 W 200 N", "CITY": "HELPER", "ZIP": "84526", "TYPE": "Grocery Store", "GCSCORE": 100.0, "GCMETHOD": "AddressPoints.AddressGrid", "DAFID": "R109376", "POINT_X": 511683.97422095999, "POINT_Y": 4393742.5695721898 }, "geometry": { "type": "Point", "coordinates": [ -110.863729647657863, 39.693449890297209 ] } },
{ "type": "Feature", "properties": { "OBJECTID": 2453, "NAME": "TRADER JOES", "NBR": "351", "STREETADDR": "6989 S 1300 E", "CITY": "MIDVALE", "ZIP": "84047", "TYPE": "Grocery Store", "GCSCORE": 100.0, "GCMETHOD": "AddressPoints.AddressGrid", "DAFID": "R109568", "POINT_X": 427760.67653546302, "POINT_Y": 4497323.0067595104 }, "geometry": { "type": "Point", "coordinates": [ -111.854110384228619, 40.623584840024421 ] } },
{ "type": "Feature", "properties": { "OBJECTID": 2457, "NAME": "RANCHO MARKET", "NBR": null, "STREETADDR": "4616 S 4000 W STE I & J", "CITY": "WEST VALLEY CITY", "ZIP": "84120", "TYPE": "Grocery Store", "GCSCORE": 83.349998474121094, "GCMETHOD": "Centerlines.StatewideRoads", "DAFID": "R110081", "POINT_X": 415317.01026991598, "POINT_Y": 4508791.19329949 }, "geometry": { "type": "Point", "coordinates": [ -112.002762780137374, 40.725701225051068 ] } },
{ "type": "Feature", "properties": { "OBJECTID": 2478, "NAME": "SMITHS FOOD & DRUG STORES", "NBR": "277", "STREETADDR": "1370 W 200 N", "CITY": "KAYSVILLE", "ZIP": "84037", "TYPE": "Grocery Store", "GCSCORE": 100.0, "GCMETHOD": "AddressPoints.AddressGrid", "DAFID": "R112495", "POINT_X": 418752.83274854202, "POINT_Y": 4543684.37396044 }, "geometry": { "type": "Point", "coordinates": [ -111.966646167722374, 41.040335512487587 ] } },
{ "type": "Feature", "properties": { "OBJECTID": 2479, "NAME": "WANGSGARDS", "NBR": null, "STREETADDR": "145 HARRISVILLE RD", "CITY": "OGDEN", "ZIP": "84404", "TYPE": "Grocery Store", "GCSCORE": 100.0, "GCMETHOD": "AddressPoints.AddressGrid", "DAFID": "R112532", "POINT_X": 418567.27186542097, "POINT_Y": 4568080.6355327498 }, "geometry": { "type": "Point", "coordinates": [ -111.972093974115978, 41.260047079249688 ] } },
{ "type": "Feature", "properties": { "OBJECTID": 2490, "NAME": "NATURAL GROCERS", "NBR": null, "STREETADDR": "650 E 400 S", "CITY": "SALT LAKE CITY", "ZIP": "84102", "TYPE": "Grocery Store", "GCSCORE": 100.0, "GCMETHOD": "Centerlines.StatewideRoads", "DAFID": "R113119", "POINT_X": 426359.34680560901, "POINT_Y": 4512539.4194831103 }, "geometry": { "type": "Point", "coordinates": [ -111.872463362998701, 40.760525701836634 ] } },
{ "type": "Feature", "properties": { "OBJECTID": 2500, "NAME": "HARMONS SANTA CLARA", "NBR": null, "STREETADDR": "3520 PIONEER PKWY", "CITY": "SANTA CLARA", "ZIP": "84765", "TYPE": "Grocery Store", "GCSCORE": 100.0, "GCMETHOD": "AddressPoints.AddressGrid", "DAFID": "R113554", "POINT_X": 263776.78533843101, "POINT_Y": 4114650.0424792399 }, "geometry": { "type": "Point", "coordinates": [ -113.659825883635051, 37.148423761816403 ] } },
{ "type": "Feature", "properties": { "OBJECTID": 2505, "NAME": "LINS SUPERMARKET INC", "NBR": null, "STREETADDR": "2928 E MALL DR", "CITY": "ST GEORGE", "ZIP": "84790", "TYPE": "Grocery Store", "GCSCORE": 100.0, "GCMETHOD": "AddressPoints.AddressGrid", "DAFID": "R114014", "POINT_X": 275671.295723224, "POINT_Y": 4108369.1160045699 }, "geometry": { "type": "Point", "coordinates": [ -113.524138033412854, 37.094790420219113 ] } },
{ "type": "Feature", "properties": { "OBJECTID": 2506, "NAME": "HOODOOS GENERAL STORE", "NBR": null, "STREETADDR": "35 LION BLVD", "CITY": "SPRINGDALE", "ZIP": "84767", "TYPE": "Grocery Store", "GCSCORE": 100.0, "GCMETHOD": "Centerlines.StatewideRoads", "DAFID": "R114217", "POINT_X": 322765.02502717398, "POINT_Y": 4118287.1073253299 }, "geometry": { "type": "Point", "coordinates": [ -112.996920885470189, 37.194234144532189 ] } },
{ "type": "Feature", "properties": { "OBJECTID": 2510, "NAME": "R & A MARKET & DELI", "NBR": null, "STREETADDR": "408 S MAIN ST", "CITY": "HELPER", "ZIP": "84526", "TYPE": "Grocery Store", "GCSCORE": 100.0, "GCMETHOD": "AddressPoints.AddressGrid", "DAFID": "R114358", "POINT_X": 512426.544923098, "POINT_Y": 4392341.0931059904 }, "geometry": { "type": "Point", "coordinates": [ -110.85509538542351, 39.680811722701847 ] } },
{ "type": "Feature", "properties": { "OBJECTID": 2512, "NAME": "SMITHS FOOD & DRUG", "NBR": "272", "STREETADDR": "217 N 2000 W", "CITY": "WEST POINT", "ZIP": "84015", "TYPE": "Supermarket", "GCSCORE": 100.0, "GCMETHOD": "AddressPoints.AddressGrid", "DAFID": "R114394", "POINT_X": 410459.31169648102, "POINT_Y": 4552267.87870418 }, "geometry": { "type": "Point", "coordinates": [ -112.066552372784045, 41.116773495077254 ] } },
{ "type": "Feature", "properties": { "OBJECTID": 2519, "NAME": "EPHRAIM MARKET FRESH", "NBR": null, "STREETADDR": "475 S MAIN ST", "CITY": "EPHRAIM", "ZIP": "84627", "TYPE": "Supermarket", "GCSCORE": 100.0, "GCMETHOD": "AddressPoints.AddressGrid", "DAFID": "R115465", "POINT_X": 449495.24589492101, "POINT_Y": 4355925.1056645699 }, "geometry": { "type": "Point", "coordinates": [ -111.586160377388339, 39.351297485335728 ] } },
{ "type": "Feature", "properties": { "OBJECTID": 2521, "NAME": "HARMONS TRAVERSE MOUNTAIN", "NBR": null, "STREETADDR": "1750 TRAVERSE PKWY", "CITY": "LEHI", "ZIP": "84043", "TYPE": "Supermarket", "GCSCORE": 100.0, "GCMETHOD": "AddressPoints.AddressGrid", "DAFID": "R115544", "POINT_X": 425510.45237232902, "POINT_Y": 4476249.2783378204 }, "geometry": { "type": "Point", "coordinates": [ -111.878230410995272, 40.433554618916872 ] } },
{ "type": "Feature", "properties": { "OBJECTID": 2523, "NAME": "SMITHS FOOD & DRUG", "NBR": "276", "STREETADDR": "5448 DAYBREAK PKWY", "CITY": "SOUTH JORDAN", "ZIP": "84009", "TYPE": "Supermarket", "GCSCORE": 100.0, "GCMETHOD": "AddressPoints.AddressGrid", "DAFID": "R115619", "POINT_X": 413520.49198080797, "POINT_Y": 4488089.5272872001 }, "geometry": { "type": "Point", "coordinates": [ -112.021187414482682, 40.539046499972336 ] } },
{ "type": "Feature", "properties": { "OBJECTID": 2531, "NAME": "JULIE`S MARKETPLACE", "NBR": null, "STREETADDR": "1 N MAIN ST", "CITY": "LEWISTON", "ZIP": "84320", "TYPE": "Grocery Store", "GCSCORE": 100.0, "GCMETHOD": "AddressPoints.AddressGrid", "DAFID": "R116254", "POINT_X": 428999.74459246302, "POINT_Y": 4647485.6993926195 }, "geometry": { "type": "Point", "coordinates": [ -111.856990244670641, 41.976172193702858 ] } },
{ "type": "Feature", "properties": { "OBJECTID": 2532, "NAME": "UPPER COUNTRY MARKET", "NBR": null, "STREETADDR": "1 MAIN ST", "CITY": "ALTAMONT", "ZIP": "84001", "TYPE": "Supermarket", "GCSCORE": 92.430000305175795, "GCMETHOD": "Centerlines.StatewideRoads", "DAFID": "R116262", "POINT_X": 585921.65462579695, "POINT_Y": 4461490.6485794596 }, "geometry": { "type": "Point", "coordinates": [ -109.988997211660589, 40.299512096670654 ] } },
{ "type": "Feature", "properties": { "OBJECTID": 2541, "NAME": "CLARK`S COUNTRY MARKET", "NBR": null, "STREETADDR": "141 N MAIN", "CITY": "TROPIC", "ZIP": "84776", "TYPE": "Grocery Store", "GCSCORE": 90.919998168945298, "GCMETHOD": "AddressPoints.AddressGrid", "DAFID": "R117088", "POINT_X": 404507.524856303, "POINT_Y": 4164863.54000931 }, "geometry": { "type": "Point", "coordinates": [ -112.082155463530825, 37.625935126525327 ] } },
{ "type": "Feature", "properties": { "OBJECTID": 2542, "NAME": "SMITHS FOOD & DRUG", "NBR": "93", "STREETADDR": "614 W 2600 S", "CITY": "WOODS CROSS", "ZIP": "84010", "TYPE": "Supermarket", "GCSCORE": 100.0, "GCMETHOD": "AddressPoints.AddressGrid", "DAFID": "R117089", "POINT_X": 424306.84393714002, "POINT_Y": 4523946.69503491 }, "geometry": { "type": "Point", "coordinates": [ -111.89816236426752, 40.863089536817235 ] } },
{ "type": "Feature", "properties": { "OBJECTID": 2543, "NAME": "NATURAL GROCERS", "NBR": null, "STREETADDR": "1033 E 2100 S", "CITY": "SALT LAKE CITY", "ZIP": "84106", "TYPE": "Grocery Store", "GCSCORE": 100.0, "GCMETHOD": "AddressPoints.AddressGrid", "DAFID": "R117144", "POINT_X": 427256.15308245597, "POINT_Y": 4508645.8055739598 }, "geometry": { "type": "Point", "coordinates": [ -111.861386869186305, 40.725533326849003 ] } },
{ "type": "Feature", "properties": { "OBJECTID": 2544, "NAME": "LEE`S MARKETPLACE", "NBR": null, "STREETADDR": "890 S MAIN", "CITY": "HEBER CITY", "ZIP": "84032", "TYPE": "Supermarket", "GCSCORE": 90.919998168945298, "GCMETHOD": "AddressPoints.AddressGrid", "DAFID": "R117145", "POINT_X": 464931.959490304, "POINT_Y": 4482916.1049016798 }, "geometry": { "type": "Point", "coordinates": [ -111.413839926887533, 40.496211966090222 ] } },
{ "type": "Feature", "properties": { "OBJECTID": 2557, "NAME": "LA TENOCH MINI MARKET", "NBR": null, "STREETADDR": "190 E 3300 S", "CITY": "SOUTH SALT LAKE", "ZIP": "84115", "TYPE": "Supermarket", "GCSCORE": 100.0, "GCMETHOD": "AddressPoints.AddressGrid", "DAFID": "R117727", "POINT_X": 425168.824602479, "POINT_Y": 4505767.9447125597 }, "geometry": { "type": "Point", "coordinates": [ -111.885757178951891, 40.69942355063931 ] } },
{ "type": "Feature", "properties": { "OBJECTID": 2558, "NAME": "FOODTOWN", "NBR": null, "STREETADDR": "145 W 200 S", "CITY": "KAMAS", "ZIP": "84036", "TYPE": "Supermarket", "GCSCORE": 100.0, "GCMETHOD": "Centerlines.StatewideRoads", "DAFID": "R11778", "POINT_X": 476001.70977471798, "POINT_Y": 4498806.3649359504 }, "geometry": { "type": "Point", "coordinates": [ -111.283812148418036, 40.639758292033541 ] } },
{ "type": "Feature", "properties": { "OBJECTID": 2559, "NAME": "NATURAL GROCERS", "NBR": null, "STREETADDR": "270 12TH ST", "CITY": "OGDEN", "ZIP": "84404", "TYPE": "Grocery Store", "GCSCORE": 100.0, "GCMETHOD": "AddressPoints.AddressGrid", "DAFID": "R117783", "POINT_X": 418447.87582433299, "POINT_Y": 4566357.49560674 }, "geometry": { "type": "Point", "coordinates": [ -111.973288629031259, 41.244515526756793 ] } },
{ "type": "Feature", "properties": { "OBJECTID": 2560, "NAME": "WINCO FOODS", "NBR": "139", "STREETADDR": "200 S FORT LN", "CITY": "LAYTON", "ZIP": "84041", "TYPE": "Grocery Store", "GCSCORE": 100.0, "GCMETHOD": "AddressPoints.AddressGrid", "DAFID": "R117948", "POINT_X": 419368.23190948099, "POINT_Y": 4545612.7884815801 }, "geometry": { "type": "Point", "coordinates": [ -111.959577741009383, 41.05776573122786 ] } },
{ "type": "Feature", "properties": { "OBJECTID": 2561, "NAME": "LEE`S MARKETPLACE", "NBR": null, "STREETADDR": "725 N REDWOOD RD", "CITY": "NORTH SALT LAKE", "ZIP": "84054", "TYPE": "Supermarket", "GCSCORE": 100.0, "GCMETHOD": "AddressPoints.AddressGrid", "DAFID": "R118089", "POINT_X": 421587.70212499698, "POINT_Y": 4522997.3461494399 }, "geometry": { "type": "Point", "coordinates": [ -111.93030348292146, 40.854282725325007 ] } },
{ "type": "Feature", "properties": { "OBJECTID": 2570, "NAME": "SMITHS MARKETPLACE", "NBR": "271", "STREETADDR": "1117 W 400 S", "CITY": "SPRINGVILLE", "ZIP": "84663", "TYPE": "Supermarket", "GCSCORE": 100.0, "GCMETHOD": "AddressPoints.AddressGrid", "DAFID": "R118751", "POINT_X": 446307.71547406301, "POINT_Y": 4445673.7634820901 }, "geometry": { "type": "Point", "coordinates": [ -111.630482846192038, 40.159708954373542 ] } },
{ "type": "Feature", "properties": { "OBJECTID": 2571, "NAME": "SMITHS MARKETPLACE", "NBR": "207", "STREETADDR": "689 N REDWOOD RD", "CITY": "SARATOGA SPRINGS", "ZIP": "84045", "TYPE": "Supermarket", "GCSCORE": 100.0, "GCMETHOD": "AddressPoints.AddressGrid", "DAFID": "R118752", "POINT_X": 422002.56020922802, "POINT_Y": 4469779.85341419 }, "geometry": { "type": "Point", "coordinates": [ -111.918790476948658, 40.374956377429399 ] } },
{ "type": "Feature", "properties": { "OBJECTID": 2586, "NAME": "LA PLACITA TENOCHTITLAN", "NBR": null, "STREETADDR": "1824 W 3500 S STE 107", "CITY": "WEST VALLEY CITY", "ZIP": "84118", "TYPE": "Supermarket", "GCSCORE": 100.0, "GCMETHOD": "AddressPoints.AddressGrid", "DAFID": "R120269", "POINT_X": 420432.12497965799, "POINT_Y": 4505594.4891066896 }, "geometry": { "type": "Point", "coordinates": [ -111.941795110012464, 40.697417316646522 ] } },
{ "type": "Feature", "properties": { "OBJECTID": 2588, "NAME": "ALI BABA`S GROCERY AND BAKERY", "NBR": null, "STREETADDR": "389 E 3300 S", "CITY": "SALT LAKE CITY", "ZIP": "84115", "TYPE": "Grocery Store", "GCSCORE": 100.0, "GCMETHOD": "AddressPoints.AddressGrid", "DAFID": "R120457", "POINT_X": 425632.47273171798, "POINT_Y": 4505827.1136928098 }, "geometry": { "type": "Point", "coordinates": [ -111.880276747479655, 40.699998505902087 ] } },
{ "type": "Feature", "properties": { "OBJECTID": 2589, "NAME": "FREMONT MARKET LLC", "NBR": null, "STREETADDR": "195 S MAIN ST", "CITY": "BEAVER", "ZIP": "84713", "TYPE": "Grocery Store", "GCSCORE": 100.0, "GCMETHOD": "Centerlines.StatewideRoads", "DAFID": "R120697", "POINT_X": 356450.392679849, "POINT_Y": 4237219.8862270899 }, "geometry": { "type": "Point", "coordinates": [ -112.641029312846996, 38.271566085843268 ] } },
{ "type": "Feature", "properties": { "OBJECTID": 2593, "NAME": "WAL-MART NEIGHBORHOOD MARKET", "NBR": null, "STREETADDR": "898 S 2550 E", "CITY": "SPANISH FORK", "ZIP": "84660", "TYPE": "Supermarket", "GCSCORE": 100.0, "GCMETHOD": "AddressPoints.AddressGrid", "DAFID": "R121013", "POINT_X": 447718.47102857899, "POINT_Y": 4438839.26595031 }, "geometry": { "type": "Point", "coordinates": [ -111.613364246654754, 40.098225462350186 ] } },
{ "type": "Feature", "properties": { "OBJECTID": 2594, "NAME": "DOLLAR TREE", "NBR": null, "STREETADDR": "113 E 200 N", "CITY": "ROOSEVELT", "ZIP": "84066", "TYPE": "Grocery Store", "GCSCORE": 100.0, "GCMETHOD": "Centerlines.StatewideRoads", "DAFID": "R121175", "POINT_X": 585821.03341053205, "POINT_Y": 4461796.1214067601 }, "geometry": { "type": "Point", "coordinates": [ -109.990140036665707, 40.302274110455585 ] } },
{ "type": "Feature", "properties": { "OBJECTID": 2595, "NAME": "DOLLAR TREE", "NBR": null, "STREETADDR": "1751 W 12600 S STE 100", "CITY": "RIVERTON", "ZIP": "84065", "TYPE": "Grocery Store", "GCSCORE": 100.0, "GCMETHOD": "AddressPoints.AddressGrid", "DAFID": "R121242", "POINT_X": 420399.00427283102, "POINT_Y": 4485996.5742735704 }, "geometry": { "type": "Point", "coordinates": [ -111.939710445330519, 40.520883126480072 ] } },
{ "type": "Feature", "properties": { "OBJECTID": 2598, "NAME": "WHOLE FOODS MARKET", "NBR": null, "STREETADDR": "6598 N LANDMARK DR", "CITY": "PARK CITY", "ZIP": "84098", "TYPE": "Supermarket", "GCSCORE": 100.0, "GCMETHOD": "AddressPoints.AddressGrid", "DAFID": "R121481", "POINT_X": 453818.20816360798, "POINT_Y": 4508627.8669313602 }, "geometry": { "type": "Point", "coordinates": [ -111.546873142240969, 40.72729051959957 ] } },
{ "type": "Feature", "properties": { "OBJECTID": 2601, "NAME": "DOLLAR GENERAL", "NBR": null, "STREETADDR": "3646 W 4700 S", "CITY": "WEST VALLEY CITY", "ZIP": "84118", "TYPE": "Grocery Store", "GCSCORE": 100.0, "GCMETHOD": "AddressPoints.AddressGrid", "DAFID": "R121639", "POINT_X": 417325.941465059, "POINT_Y": 4502382.4140006201 }, "geometry": { "type": "Point", "coordinates": [ -111.978132823232755, 40.668178964382726 ] } },
{ "type": "Feature", "properties": { "OBJECTID": 2603, "NAME": "WINCO FOODS", "NBR": "142", "STREETADDR": "2193 S MAIN ST", "CITY": "SOUTH SALT LAKE", "ZIP": "84115", "TYPE": "Supermarket", "GCSCORE": 100.0, "GCMETHOD": "AddressPoints.AddressGrid", "DAFID": "R121689", "POINT_X": 424821.196401925, "POINT_Y": 4508529.5559304096 }, "geometry": { "type": "Point", "coordinates": [ -111.890202796247351, 40.724267410824822 ] } },
{ "type": "Feature", "properties": { "OBJECTID": 2605, "NAME": "KENTS MARKET", "NBR": null, "STREETADDR": "2600 N 3600 W", "CITY": "PLAIN CITY", "ZIP": "84404", "TYPE": "Grocery Store", "GCSCORE": 100.0, "GCMETHOD": "Centerlines.StatewideRoads", "DAFID": "R121833", "POINT_X": 410725.06010656198, "POINT_Y": 4573176.7120310701 }, "geometry": { "type": "Point", "coordinates": [ -112.066441553840093, 41.305114996705498 ] } },
{ "type": "Feature", "properties": { "OBJECTID": 2610, "NAME": "NATURAL GROCERS", "NBR": null, "STREETADDR": "989 S MAIN ST", "CITY": "HEBER CITY", "ZIP": "84032", "TYPE": "Grocery Store", "GCSCORE": 100.0, "GCMETHOD": "Centerlines.StatewideRoads", "DAFID": "R121872", "POINT_X": 464969.65828795399, "POINT_Y": 4482760.84536249 }, "geometry": { "type": "Point", "coordinates": [ -111.413386467371652, 40.494814853950636 ] } },
{ "type": "Feature", "properties": { "OBJECTID": 2615, "NAME": "THEAPOTHECARY", "NBR": null, "STREETADDR": "133 E 4800 S", "CITY": "MURRAY", "ZIP": "84107", "TYPE": "Supermarket", "GCSCORE": 100.0, "GCMETHOD": "AddressPoints.AddressGrid", "DAFID": "R122117", "POINT_X": 425005.47645065002, "POINT_Y": 4502193.6649536202 }, "geometry": { "type": "Point", "coordinates": [ -111.887263312794445, 40.667212810460143 ] } },
{ "type": "Feature", "properties": { "OBJECTID": 2620, "NAME": "ORANGE RANCH LLCDBA FOOD RANCH", "NBR": null, "STREETADDR": "355 E HIGHWAY 29", "CITY": "ORANGEVILLE", "ZIP": "84537", "TYPE": "Grocery Store", "GCSCORE": 100.0, "GCMETHOD": "AddressPoints.AddressGrid", "DAFID": "R122360", "POINT_X": 495982.294970961, "POINT_Y": 4342430.0534808403 }, "geometry": { "type": "Point", "coordinates": [ -111.046551528548292, 39.231161368355664 ] } },
{ "type": "Feature", "properties": { "OBJECTID": 2621, "NAME": "MAIN STREET MARKET", "NBR": null, "STREETADDR": "15 W MAIN ST", "CITY": "FERRON", "ZIP": "84523", "TYPE": "Grocery Store", "GCSCORE": 100.0, "GCMETHOD": "AddressPoints.AddressGrid", "DAFID": "R122414", "POINT_X": 488541.62863916799, "POINT_Y": 4326729.8151695402 }, "geometry": { "type": "Point", "coordinates": [ -111.132495088594098, 39.089618714570371 ] } },
{ "type": "Feature", "properties": { "OBJECTID": 2625, "NAME": "CVS/PHARMACY", "NBR": "10741", "STREETADDR": "4082 S REDWOOD RD", "CITY": "WEST VALLEY CITY", "ZIP": "84123", "TYPE": "Grocery Store", "GCSCORE": 100.0, "GCMETHOD": "Centerlines.StatewideRoads", "DAFID": "R122621", "POINT_X": 420645.59150695102, "POINT_Y": 4503945.9802177101 }, "geometry": { "type": "Point", "coordinates": [ -111.939060245496364, 40.682588927006805 ] } },
{ "type": "Feature", "properties": { "OBJECTID": 2629, "NAME": "HARMON`S HOLLADAY MARKET", "NBR": null, "STREETADDR": "4675 S  BLVD", "CITY": "HOLLADAY", "ZIP": "84117", "TYPE": "Grocery Store", "GCSCORE": 90.919998168945298, "GCMETHOD": "Centerlines.StatewideRoads", "DAFID": "R122799", "POINT_X": 415235.79120941099, "POINT_Y": 4508762.0408648001 }, "geometry": { "type": "Point", "coordinates": [ -112.003720436755657, 40.725430281274804 ] } },
{ "type": "Feature", "properties": { "OBJECTID": 2631, "NAME": "EL CENTRO DE PAYSON INC", "NBR": null, "STREETADDR": "3 N MAIN ST", "CITY": "PAYSON", "ZIP": "84651", "TYPE": "Grocery Store", "GCSCORE": 100.0, "GCMETHOD": "AddressPoints.AddressGrid", "DAFID": "R122872", "POINT_X": 437517.88501566497, "POINT_Y": 4432867.9046192598 }, "geometry": { "type": "Point", "coordinates": [ -111.732451499452623, 40.043734391160712 ] } },
{ "type": "Feature", "properties": { "OBJECTID": 2636, "NAME": "GG`S MARKETPLACE", "NBR": null, "STREETADDR": "515 N MAIN ST", "CITY": "MONROE", "ZIP": "84754", "TYPE": "Grocery Store", "GCSCORE": 100.0, "GCMETHOD": "AddressPoints.AddressGrid", "DAFID": "R123028", "POINT_X": 402355.29148552002, "POINT_Y": 4277517.4359021299 }, "geometry": { "type": "Point", "coordinates": [ -112.121978469803622, 38.640832187632441 ] } },
{ "type": "Feature", "properties": { "OBJECTID": 2637, "NAME": "ISLAND MARKET", "NBR": null, "STREETADDR": "400 E CTR ST", "CITY": "LOGAN", "ZIP": "84321", "TYPE": "Grocery Store", "GCSCORE": 100.0, "GCMETHOD": "AddressPoints.AddressGrid", "DAFID": "R12307", "POINT_X": 431430.705626562, "POINT_Y": 4620247.1061912896 }, "geometry": { "type": "Point", "coordinates": [ -111.824493457412586, 41.731079701741912 ] } },
{ "type": "Feature", "properties": { "OBJECTID": 2638, "NAME": "EASTERN GROCERIES", "NBR": null, "STREETADDR": "1616 W 3500 S", "CITY": "WEST VALLEY CITY", "ZIP": "84119", "TYPE": "Grocery Store", "GCSCORE": 100.0, "GCMETHOD": "AddressPoints.AddressGrid", "DAFID": "R123108", "POINT_X": 420830.99351710803, "POINT_Y": 4505574.2741986196 }, "geometry": { "type": "Point", "coordinates": [ -111.937072015440577, 40.697273652393015 ] } },
{ "type": "Feature", "properties": { "OBJECTID": 2642, "NAME": "TROPICAL ISLAND MARKET", "NBR": null, "STREETADDR": "880 W 200 N", "CITY": "SALT LAKE CITY", "ZIP": "84116", "TYPE": "Grocery Store", "GCSCORE": 100.0, "GCMETHOD": "AddressPoints.AddressGrid", "DAFID": "R123326", "POINT_X": 422659.32196789002, "POINT_Y": 4514067.3965847604 }, "geometry": { "type": "Point", "coordinates": [ -111.916483434273147, 40.773949143188219 ] } },
{ "type": "Feature", "properties": { "OBJECTID": 2643, "NAME": "ZEITOON MARKET", "NBR": null, "STREETADDR": "9305 S 700 E", "CITY": "SANDY", "ZIP": "84070", "TYPE": "Grocery Store", "GCSCORE": 100.0, "GCMETHOD": "AddressPoints.AddressGrid", "DAFID": "R123331", "POINT_X": 426214.61196469999, "POINT_Y": 4492858.1781593598 }, "geometry": { "type": "Point", "coordinates": [ -111.87186512649933, 40.583229815926067 ] } },
{ "type": "Feature", "properties": { "OBJECTID": 2651, "NAME": "LEES MARKET PLACE", "NBR": null, "STREETADDR": "850 S MAIN ST", "CITY": "SMITHFIELD", "ZIP": "84335", "TYPE": "Supermarket", "GCSCORE": 100.0, "GCMETHOD": "AddressPoints.AddressGrid", "DAFID": "R12425", "POINT_X": 430921.07275808399, "POINT_Y": 4630045.0368520198 }, "geometry": { "type": "Point", "coordinates": [ -111.831760357955503, 41.819275914432339 ] } },
{ "type": "Feature", "properties": { "OBJECTID": 2653, "NAME": "BULL MTN MARKET", "NBR": null, "STREETADDR": "30 E 100 N", "CITY": "HANKSVILLE", "ZIP": "84734", "TYPE": "Grocery Store", "GCSCORE": 100.0, "GCMETHOD": "AddressPoints.AddressGrid", "DAFID": "R13049", "POINT_X": 524988.286495529, "POINT_Y": 4247362.4036642704 }, "geometry": { "type": "Point", "coordinates": [ -110.713928670233585, 38.374103469667027 ] } },
{ "type": "Feature", "properties": { "OBJECTID": 2657, "NAME": "KANOSH MERCANTILE GROUP LLC", "NBR": null, "STREETADDR": "10 S MAIN ST", "CITY": "KANOSH", "ZIP": "84637", "TYPE": "Grocery Store", "GCSCORE": 100.0, "GCMETHOD": "AddressPoints.AddressGrid", "DAFID": "R13660", "POINT_X": 375125.260383685, "POINT_Y": 4295692.3646044601 }, "geometry": { "type": "Point", "coordinates": [ -112.438061095777798, 38.801150852589195 ] } },
{ "type": "Feature", "properties": { "OBJECTID": 2658, "NAME": "KENS KASH LLC", "NBR": null, "STREETADDR": "980 W CTR ST", "CITY": "OAKLEY", "ZIP": "84055", "TYPE": "Grocery Store", "GCSCORE": 100.0, "GCMETHOD": "AddressPoints.AddressGrid", "DAFID": "R13858", "POINT_X": 474667.74879965599, "POINT_Y": 4507171.2240923997 }, "geometry": { "type": "Point", "coordinates": [ -111.299925248068178, 40.715074328576421 ] } },
{ "type": "Feature", "properties": { "OBJECTID": 2659, "NAME": "BLUE MOUNTAIN FOODS", "NBR": null, "STREETADDR": "64 W CTR ST", "CITY": "MONTICELLO", "ZIP": "84535", "TYPE": "Grocery Store", "GCSCORE": 100.0, "GCMETHOD": "AddressPoints.AddressGrid", "DAFID": "R13909", "POINT_X": 645626.09653045097, "POINT_Y": 4192984.2104461002 }, "geometry": { "type": "Point", "coordinates": [ -109.344252283383312, 37.872713704289531 ] } },
{ "type": "Feature", "properties": { "OBJECTID": 2660, "NAME": "KENTCOS FOODS", "NBR": null, "STREETADDR": "300 E MAIN ST", "CITY": "TREMONTON", "ZIP": "84337", "TYPE": "Supermarket", "GCSCORE": 100.0, "GCMETHOD": "AddressPoints.AddressGrid", "DAFID": "R13919", "POINT_X": 403341.47132093197, "POINT_Y": 4618345.1297627399 }, "geometry": { "type": "Point", "coordinates": [ -112.161877457631974, 41.711031937487377 ] } },
{ "type": "Feature", "properties": { "OBJECTID": 2661, "NAME": "SALT LAKE CITY KOA", "NBR": null, "STREETADDR": "1400 W N TEMPLE ST", "CITY": "SALT LAKE CITY", "ZIP": "84116", "TYPE": "Grocery Store", "GCSCORE": 100.0, "GCMETHOD": "AddressPoints.AddressGrid", "DAFID": "R14229", "POINT_X": 421371.88152927102, "POINT_Y": 4513873.2039915798 }, "geometry": { "type": "Point", "coordinates": [ -111.931713154322907, 40.772077795086105 ] } },
{ "type": "Feature", "properties": { "OBJECTID": 2662, "NAME": "LINS MARKET INC", "NBR": null, "STREETADDR": "1930 W SUNSET BLVD", "CITY": "SAINT GEORGE", "ZIP": "84770", "TYPE": "Grocery Store", "GCSCORE": 100.0, "GCMETHOD": "AddressPoints.AddressGrid", "DAFID": "R15048", "POINT_X": 266720.37249530299, "POINT_Y": 4111872.7062347601 }, "geometry": { "type": "Point", "coordinates": [ -113.625848656076258, 37.124153572124939 ] } },
{ "type": "Feature", "properties": { "OBJECTID": 2663, "NAME": "LINS MARKETPLACE", "NBR": null, "STREETADDR": "1120 W STATE ST", "CITY": "HURRICANE", "ZIP": "84737", "TYPE": "Grocery Store", "GCSCORE": 100.0, "GCMETHOD": "AddressPoints.AddressGrid", "DAFID": "R15049", "POINT_X": 295004.66256511997, "POINT_Y": 4117056.5005944599 }, "geometry": { "type": "Point", "coordinates": [ -113.309145999761867, 37.177467094393556 ] } },
{ "type": "Feature", "properties": { "OBJECTID": 2664, "NAME": "LINS CEDAR CITY", "NBR": null, "STREETADDR": "150 N MAIN ST", "CITY": "CEDAR CITY", "ZIP": "84721", "TYPE": "Supermarket", "GCSCORE": 100.0, "GCMETHOD": "AddressPoints.AddressGrid", "DAFID": "R15117", "POINT_X": 318298.78006178199, "POINT_Y": 4172324.1636900902 }, "geometry": { "type": "Point", "coordinates": [ -113.060523281242311, 37.680138076335005 ] } },
{ "type": "Feature", "properties": { "OBJECTID": 2665, "NAME": "PAROWAN MARKET INC", "NBR": null, "STREETADDR": "740 W 200 S", "CITY": "PAROWAN", "ZIP": "84761", "TYPE": "Grocery Store", "GCSCORE": 100.0, "GCMETHOD": "AddressPoints.AddressGrid", "DAFID": "R15456", "POINT_X": 337962.51168411202, "POINT_Y": 4189568.6218921901 }, "geometry": { "type": "Point", "coordinates": [ -112.841492851836122, 37.839171609827098 ] } },
{ "type": "Feature", "properties": { "OBJECTID": 2666, "NAME": "MANTI MARKET", "NBR": null, "STREETADDR": "35 E UNION", "CITY": "MANTI", "ZIP": "84642", "TYPE": "Supermarket", "GCSCORE": 90.919998168945298, "GCMETHOD": "Centerlines.StatewideRoads", "DAFID": "R15673", "POINT_X": 445106.825267974, "POINT_Y": 4346439.1860548602 }, "geometry": { "type": "Point", "coordinates": [ -111.636315012803209, 39.26555853823433 ] } },
{ "type": "Feature", "properties": { "OBJECTID": 2667, "NAME": "MARYS HEALTH SHOPPE", "NBR": null, "STREETADDR": "78 S FAIRFIELD RD - 102", "CITY": "LAYTON", "ZIP": "84041", "TYPE": "Grocery Store", "GCSCORE": 90.919998168945298, "GCMETHOD": "AddressPoints.AddressGrid", "DAFID": "R15833", "POINT_X": 420553.69287037401, "POINT_Y": 4545838.16660788 }, "geometry": { "type": "Point", "coordinates": [ -111.945500863165819, 41.059912308956768 ] } },
{ "type": "Feature", "properties": { "OBJECTID": 2668, "NAME": "FOODTOWN MIKES", "NBR": null, "STREETADDR": "270 N MAIN ST", "CITY": "BEAVER", "ZIP": "84713", "TYPE": "Grocery Store", "GCSCORE": 100.0, "GCMETHOD": "AddressPoints.AddressGrid", "DAFID": "R16561", "POINT_X": 356491.62590222497, "POINT_Y": 4237913.99461147 }, "geometry": { "type": "Point", "coordinates": [ -112.64069886832516, 38.277825741247824 ] } },
{ "type": "Feature", "properties": { "OBJECTID": 2670, "NAME": "MINERS TRADING POST", "NBR": null, "STREETADDR": "123 Market St", "CITY": "SUNNYSIDE", "ZIP": "84539", "TYPE": "Grocery Store", "GCSCORE": null, "GCMETHOD": "Manually Placed", "DAFID": "R16718", "POINT_X": 552697.0, "POINT_Y": 4378153.0 }, "geometry": { "type": "Point", "coordinates": [ -110.386646381765104, 39.551444063070747 ] } },
{ "type": "Feature", "properties": { "OBJECTID": 2673, "NAME": "RED MESA", "NBR": "516", "STREETADDR": "516 HIGHWAY 162", "CITY": "MONTEZUMA CREEK", "ZIP": "84534", "TYPE": "Grocery Store", "GCSCORE": null, "GCMETHOD": "Manually Placed", "DAFID": "R17400", "POINT_X": 650522.0, "POINT_Y": 4125080.0 }, "geometry": { "type": "Point", "coordinates": [ -109.302552212423635, 37.260129497771921 ] } },
{ "type": "Feature", "properties": { "OBJECTID": 2679, "NAME": "FOODTOWN", "NBR": null, "STREETADDR": "95 N STATE ST", "CITY": "SALINA", "ZIP": "84654", "TYPE": "Supermarket", "GCSCORE": 100.0, "GCMETHOD": "AddressPoints.AddressGrid", "DAFID": "R1872", "POINT_X": 425438.86486728297, "POINT_Y": 4312561.0858598603 }, "geometry": { "type": "Point", "coordinates": [ -111.860561411810565, 38.958842106901024 ] } },
{ "type": "Feature", "properties": { "OBJECTID": 2681, "NAME": "CLARKS MARKET", "NBR": null, "STREETADDR": "820 S MAIN ST", "CITY": "BLANDING", "ZIP": "84511", "TYPE": "Grocery Store", "GCSCORE": 100.0, "GCMETHOD": "AddressPoints.AddressGrid", "DAFID": "R18894", "POINT_X": 634231.57795088296, "POINT_Y": 4163981.6159171001 }, "geometry": { "type": "Point", "coordinates": [ -109.479119966554208, 37.613147965037889 ] } },
{ "type": "Feature", "properties": { "OBJECTID": 2686, "NAME": "ASHMANS PIONEER MARKET", "NBR": null, "STREETADDR": "10 S MAIN ST", "CITY": "FILLMORE", "ZIP": "84631", "TYPE": "Grocery Store", "GCSCORE": 100.0, "GCMETHOD": "AddressPoints.AddressGrid", "DAFID": "R19606", "POINT_X": 385298.61474356998, "POINT_Y": 4314135.2939820504 }, "geometry": { "type": "Point", "coordinates": [ -112.324015839568688, 38.968688922065276 ] } },
{ "type": "Feature", "properties": { "OBJECTID": 2690, "NAME": "QUALITY MARKET", "NBR": null, "STREETADDR": "180 E MAIN ST", "CITY": "DELTA", "ZIP": "84624", "TYPE": "Supermarket", "GCSCORE": 100.0, "GCMETHOD": "AddressPoints.AddressGrid", "DAFID": "R20059", "POINT_X": 364652.49010056502, "POINT_Y": 4356982.0864056395 }, "geometry": { "type": "Point", "coordinates": [ -112.570822470102627, 39.351695049171674 ] } },
{ "type": "Feature", "properties": { "OBJECTID": 2696, "NAME": "RANDLETT MERCANTILE", "NBR": null, "STREETADDR": "10329 E 4250 S", "CITY": "RANDLETT", "ZIP": "84063", "TYPE": "Grocery Store", "GCSCORE": null, "GCMETHOD": "Manually Placed", "DAFID": "R20264", "POINT_X": 601632.0, "POINT_Y": 4454320.0 }, "geometry": { "type": "Point", "coordinates": [ -109.805311850135524, 40.233160417989012 ] } },
{ "type": "Feature", "properties": { "OBJECTID": 2698, "NAME": "REAMS", "NBR": "10", "STREETADDR": "3665 W 6200 S", "CITY": "KEARNS", "ZIP": "84118", "TYPE": "Supermarket", "GCSCORE": 100.0, "GCMETHOD": "AddressPoints.AddressGrid", "DAFID": "R20377", "POINT_X": 417251.20060141798, "POINT_Y": 4498980.39950688 }, "geometry": { "type": "Point", "coordinates": [ -111.978569078704879, 40.637527908658065 ] } },
{ "type": "Feature", "properties": { "OBJECTID": 2699, "NAME": "REAMS", "NBR": "11", "STREETADDR": "2640 W 9000 S", "CITY": "WEST JORDAN", "ZIP": "84088", "TYPE": "Supermarket", "GCSCORE": 100.0, "GCMETHOD": "AddressPoints.AddressGrid", "DAFID": "R20378", "POINT_X": 419040.96479919, "POINT_Y": 4493462.7250332097 }, "geometry": { "type": "Point", "coordinates": [ -111.956697302677838, 40.588004368044359 ] } },
{ "type": "Feature", "properties": { "OBJECTID": 2700, "NAME": "RIDLEY`S FAMILY MARKET", "NBR": null, "STREETADDR": "275 E 300 N", "CITY": "MORGAN", "ZIP": "84050", "TYPE": "Grocery Store", "GCSCORE": 100.0, "GCMETHOD": "AddressPoints.AddressGrid", "DAFID": "R21113", "POINT_X": 442925.07360056601, "POINT_Y": 4543880.5086883903 }, "geometry": { "type": "Point", "coordinates": [ -111.679097259094476, 41.044155745406151 ] } },
{ "type": "Feature", "properties": { "OBJECTID": 2701, "NAME": "RUBYS INN GENERAL STORE", "NBR": null, "STREETADDR": "26 South Main Street", "CITY": "BRYCE CANYON CITY", "ZIP": "84764", "TYPE": "Grocery Store", "GCSCORE": 100.0, "GCMETHOD": "AddressPoints.AddressGrid", "DAFID": "R21349", "POINT_X": 397969.032330079, "POINT_Y": 4170228.05035681 }, "geometry": { "type": "Point", "coordinates": [ -112.156988266041949, 37.673574965367145 ] } },
{ "type": "Feature", "properties": { "OBJECTID": 2702, "NAME": "DAVIS FOOD & DRUG", "NBR": "2", "STREETADDR": "750 E 200 N", "CITY": "ROOSEVELT", "ZIP": "84066", "TYPE": "Supermarket", "GCSCORE": 100.0, "GCMETHOD": "Centerlines.StatewideRoads", "DAFID": "R21481", "POINT_X": 586653.64511070296, "POINT_Y": 4461780.3028982598 }, "geometry": { "type": "Point", "coordinates": [ -109.980346231449587, 40.302045702420997 ] } },
{ "type": "Feature", "properties": { "OBJECTID": 2703, "NAME": "DAVIS FOOD & DRUG", "NBR": "1", "STREETADDR": "575 W MAIN ST", "CITY": "VERNAL", "ZIP": "84078", "TYPE": "Grocery Store", "GCSCORE": 100.0, "GCMETHOD": "AddressPoints.AddressGrid", "DAFID": "R21546", "POINT_X": 623854.82848112402, "POINT_Y": 4479267.8360732002 }, "geometry": { "type": "Point", "coordinates": [ -109.53931557855941, 40.454857871909937 ] } },
{ "type": "Feature", "properties": { "OBJECTID": 2707, "NAME": "FOODTOWN", "NBR": null, "STREETADDR": "173 E MAIN ST", "CITY": "DUCHESNE", "ZIP": "84021", "TYPE": "Grocery Store", "GCSCORE": 100.0, "GCMETHOD": "Centerlines.StatewideRoads", "DAFID": "R22346", "POINT_X": 551232.17895602004, "POINT_Y": 4446081.5520671401 }, "geometry": { "type": "Point", "coordinates": [ -110.398375032806058, 40.163538363905673 ] } },
{ "type": "Feature", "properties": { "OBJECTID": 2713, "NAME": "SMITHS", "NBR": "30", "STREETADDR": "4275 S HARRISON BLVD", "CITY": "OGDEN", "ZIP": "84403", "TYPE": "Supermarket", "GCSCORE": 100.0, "GCMETHOD": "AddressPoints.AddressGrid", "DAFID": "R22697", "POINT_X": 420269.62607672199, "POINT_Y": 4559775.5382437296 }, "geometry": { "type": "Point", "coordinates": [ -111.950691099892268, 41.185415763967214 ] } },
{ "type": "Feature", "properties": { "OBJECTID": 2714, "NAME": "SMITHS", "NBR": "149", "STREETADDR": "1170 E GENTILE ST", "CITY": "LAYTON", "ZIP": "84041", "TYPE": "Supermarket", "GCSCORE": 100.0, "GCMETHOD": "AddressPoints.AddressGrid", "DAFID": "R22705", "POINT_X": 420702.60379102197, "POINT_Y": 4545913.1580695603 }, "geometry": { "type": "Point", "coordinates": [ -111.943738548953235, 41.06060227903594 ] } },
{ "type": "Feature", "properties": { "OBJECTID": 2715, "NAME": "SMITHS", "NBR": "87", "STREETADDR": "175 E 442 N", "CITY": "LOGAN", "ZIP": "84321", "TYPE": "Supermarket", "GCSCORE": 100.0, "GCMETHOD": "AddressPoints.AddressGrid", "DAFID": "R22707", "POINT_X": 430940.51498888899, "POINT_Y": 4621218.6190806599 }, "geometry": { "type": "Point", "coordinates": [ -111.830499720281537, 41.739786835486328 ] } },
{ "type": "Feature", "properties": { "OBJECTID": 2716, "NAME": "SMITHS", "NBR": "83", "STREETADDR": "665 W 5300 S", "CITY": "MURRAY", "ZIP": "84123", "TYPE": "Supermarket", "GCSCORE": 100.0, "GCMETHOD": "AddressPoints.AddressGrid", "DAFID": "R22708", "POINT_X": 423135.93158433202, "POINT_Y": 4500613.1988416295 }, "geometry": { "type": "Point", "coordinates": [ -111.909185948737274, 40.652804431747676 ] } },
{ "type": "Feature", "properties": { "OBJECTID": 2717, "NAME": "SMITHS", "NBR": "47", "STREETADDR": "2039 E 9400 S", "CITY": "SANDY", "ZIP": "84092", "TYPE": "Supermarket", "GCSCORE": 100.0, "GCMETHOD": "AddressPoints.AddressGrid", "DAFID": "R22711", "POINT_X": 429523.334379223, "POINT_Y": 4492654.5185293304 }, "geometry": { "type": "Point", "coordinates": [ -111.83274983727452, 40.581683789769826 ] } },
{ "type": "Feature", "properties": { "OBJECTID": 2718, "NAME": "SMITHS", "NBR": "80", "STREETADDR": "828 S 900 W", "CITY": "SALT LAKE CITY", "ZIP": "84104", "TYPE": "Supermarket", "GCSCORE": 100.0, "GCMETHOD": "AddressPoints.AddressGrid", "DAFID": "R22714", "POINT_X": 422496.022543456, "POINT_Y": 4511560.7688664999 }, "geometry": { "type": "Point", "coordinates": [ -111.918107505647839, 40.751355421421771 ] } },
{ "type": "Feature", "properties": { "OBJECTID": 2719, "NAME": "SMITHS", "NBR": "44", "STREETADDR": "876 E 800 S", "CITY": "SALT LAKE CITY", "ZIP": "84102", "TYPE": "Supermarket", "GCSCORE": 100.0, "GCMETHOD": "AddressPoints.AddressGrid", "DAFID": "R22715", "POINT_X": 426882.46268636599, "POINT_Y": 4511452.1137355901 }, "geometry": { "type": "Point", "coordinates": [ -111.866139265483298, 40.750778381820275 ] } },
{ "type": "Feature", "properties": { "OBJECTID": 2720, "NAME": "SMITHS", "NBR": "139", "STREETADDR": "7061 S REDWOOD RD", "CITY": "WEST JORDAN", "ZIP": "84084", "TYPE": "Supermarket", "GCSCORE": 100.0, "GCMETHOD": "AddressPoints.AddressGrid", "DAFID": "R22717", "POINT_X": 420741.95464341698, "POINT_Y": 4497334.10964463 }, "geometry": { "type": "Point", "coordinates": [ -111.937086273028143, 40.623041230934611 ] } },
{ "type": "Feature", "properties": { "OBJECTID": 2721, "NAME": "SMITHS", "NBR": "77", "STREETADDR": "402 E SIXTH AVE (300 N)", "CITY": "SALT LAKE CITY", "ZIP": "84103", "TYPE": "Supermarket", "GCSCORE": 90.919998168945298, "GCMETHOD": "AddressPoints.AddressGrid", "DAFID": "R22718", "POINT_X": 426010.42329438502, "POINT_Y": 4514215.26334693 }, "geometry": { "type": "Point", "coordinates": [ -111.876795201938222, 40.775589621155419 ] } },
{ "type": "Feature", "properties": { "OBJECTID": 2722, "NAME": "SMITHS", "NBR": "81", "STREETADDR": "3470 E 7800 S", "CITY": "SALT LAKE CITY", "ZIP": "84121", "TYPE": "Supermarket", "GCSCORE": 100.0, "GCMETHOD": "Centerlines.StatewideRoads", "DAFID": "R22721", "POINT_X": 432603.78604737902, "POINT_Y": 4495690.72480019 }, "geometry": { "type": "Point", "coordinates": [ -111.796679490069209, 40.609290655791895 ] } },
{ "type": "Feature", "properties": { "OBJECTID": 2723, "NAME": "SMITHS", "NBR": "137", "STREETADDR": "4643 S 4000 W", "CITY": "WEST VALLEY CITY", "ZIP": "84120", "TYPE": "Supermarket", "GCSCORE": 100.0, "GCMETHOD": "AddressPoints.AddressGrid", "DAFID": "R22725", "POINT_X": 416727.18619021098, "POINT_Y": 4502447.1796702901 }, "geometry": { "type": "Point", "coordinates": [ -111.985224392289737, 40.668702102770538 ] } },
{ "type": "Feature", "properties": { "OBJECTID": 2724, "NAME": "SMITHS", "NBR": "48", "STREETADDR": "1075 E MAIN ST", "CITY": "PRICE", "ZIP": "84501", "TYPE": "Supermarket", "GCSCORE": 100.0, "GCMETHOD": "AddressPoints.AddressGrid", "DAFID": "R22769", "POINT_X": 517660.50761699601, "POINT_Y": 4383308.3148146803 }, "geometry": { "type": "Point", "coordinates": [ -110.794303795856919, 39.599331311840466 ] } },
{ "type": "Feature", "properties": { "OBJECTID": 2726, "NAME": "SUMMIT MERC", "NBR": null, "STREETADDR": "16 S MAIN ST", "CITY": "COALVILLE", "ZIP": "84017", "TYPE": "Grocery Store", "GCSCORE": 100.0, "GCMETHOD": "AddressPoints.AddressGrid", "DAFID": "R24092", "POINT_X": 466432.92337600398, "POINT_Y": 4529508.4469183404 }, "geometry": { "type": "Point", "coordinates": [ -111.398622463628115, 40.916000373697457 ] } },
{ "type": "Feature", "properties": { "OBJECTID": 2728, "NAME": "TERRELS THRIFTWAY", "NBR": null, "STREETADDR": "1050 S STATE ST", "CITY": "MOUNT PLEASANT", "ZIP": "84647", "TYPE": "Supermarket", "GCSCORE": 100.0, "GCMETHOD": "AddressPoints.AddressGrid", "DAFID": "R24593", "POINT_X": 460888.36530213198, "POINT_Y": 4375861.3139214804 }, "geometry": { "type": "Point", "coordinates": [ -111.45510358295553, 39.531521469230988 ] } },
{ "type": "Feature", "properties": { "OBJECTID": 2729, "NAME": "CARTERS MARKET", "NBR": null, "STREETADDR": "167 E MAIN ST", "CITY": "ENTERPRISE", "ZIP": "84725", "TYPE": "Grocery Store", "GCSCORE": 100.0, "GCMETHOD": "AddressPoints.AddressGrid", "DAFID": "R24603", "POINT_X": 259997.51638767699, "POINT_Y": 4162027.4246037402 }, "geometry": { "type": "Point", "coordinates": [ -113.717686996489121, 37.574037007406154 ] } },
{ "type": "Feature", "properties": { "OBJECTID": 2735, "NAME": "SOELBERGS", "NBR": null, "STREETADDR": "213 E MAIN ST", "CITY": "GRANTSVILLE", "ZIP": "84029", "TYPE": "Grocery Store", "GCSCORE": 100.0, "GCMETHOD": "Centerlines.StatewideRoads", "DAFID": "R24833", "POINT_X": 376712.45547637303, "POINT_Y": 4495368.0470120898 }, "geometry": { "type": "Point", "coordinates": [ -112.457140112836811, 40.599938619961563 ] } },
{ "type": "Feature", "properties": { "OBJECTID": 2736, "NAME": "HOMETOWN MARKET", "NBR": null, "STREETADDR": "221 N MAIN ST", "CITY": "HUNTINGTON", "ZIP": "84528", "TYPE": "Supermarket", "GCSCORE": 100.0, "GCMETHOD": "AddressPoints.AddressGrid", "DAFID": "R25084", "POINT_X": 502979.72995223, "POINT_Y": 4353453.26234564 }, "geometry": { "type": "Point", "coordinates": [ -110.965428857094508, 39.330494938537704 ] } },
{ "type": "Feature", "properties": { "OBJECTID": 2737, "NAME": "TODDS MARKET", "NBR": null, "STREETADDR": "55 W MAIN ST", "CITY": "MINERSVILLE", "ZIP": "84752", "TYPE": "Grocery Store", "GCSCORE": 100.0, "GCMETHOD": "AddressPoints.AddressGrid", "DAFID": "R25182", "POINT_X": 331492.355849549, "POINT_Y": 4231459.2227117699 }, "geometry": { "type": "Point", "coordinates": [ -112.924837266599212, 38.215340955215396 ] } },
{ "type": "Feature", "properties": { "OBJECTID": 2738, "NAME": "FOODTOWN", "NBR": null, "STREETADDR": "51 N MAIN ST", "CITY": "COALVILLE", "ZIP": "84017", "TYPE": "Supermarket", "GCSCORE": 100.0, "GCMETHOD": "AddressPoints.AddressGrid", "DAFID": "R25317", "POINT_X": 466339.04656804499, "POINT_Y": 4529701.1289622597 }, "geometry": { "type": "Point", "coordinates": [ -111.399747710320156, 40.917732223051715 ] } },
{ "type": "Feature", "properties": { "OBJECTID": 2743, "NAME": "JOES MAIN STREET MARKET", "NBR": null, "STREETADDR": "10 S MAIN ST", "CITY": "PANGUITCH", "ZIP": "84759", "TYPE": "Grocery Store", "GCSCORE": 100.0, "GCMETHOD": "AddressPoints.AddressGrid", "DAFID": "R26750", "POINT_X": 373633.89579489903, "POINT_Y": 4187091.6552356798 }, "geometry": { "type": "Point", "coordinates": [ -112.435801262548921, 37.822494197937921 ] } },
{ "type": "Feature", "properties": { "OBJECTID": 2744, "NAME": "WINEGARS SUPERMARKETS INC", "NBR": null, "STREETADDR": "3371 S ORCHARD DR", "CITY": "BOUNTIFUL", "ZIP": "84010", "TYPE": "Supermarket", "GCSCORE": 79.0, "GCMETHOD": "Centerlines.StatewideRoads", "DAFID": "R27532", "POINT_X": 424472.55824014201, "POINT_Y": 4522803.4556061197 }, "geometry": { "type": "Point", "coordinates": [ -111.896057471339034, 40.852807261896572 ] } },
{ "type": "Feature", "properties": { "OBJECTID": 2745, "NAME": "WINEGARS SUPERMARKETS INC", "NBR": null, "STREETADDR": "1080 W 300 N", "CITY": "CLEARFIELD", "ZIP": "84015", "TYPE": "Supermarket", "GCSCORE": 100.0, "GCMETHOD": "AddressPoints.AddressGrid", "DAFID": "R27535", "POINT_X": 412126.54041668301, "POINT_Y": 4552514.5367802 }, "geometry": { "type": "Point", "coordinates": [ -112.046731916890224, 41.11917717810509 ] } },
{ "type": "Feature", "properties": { "OBJECTID": 2747, "NAME": "REAMS", "NBR": "8", "STREETADDR": "7235 W 3500 S", "CITY": "MAGNA", "ZIP": "84044", "TYPE": "Supermarket", "GCSCORE": 100.0, "GCMETHOD": "AddressPoints.AddressGrid", "DAFID": "R28186", "POINT_X": 410076.95478504902, "POINT_Y": 4505484.5461803302 }, "geometry": { "type": "Point", "coordinates": [ -112.064327739479438, 40.695362019761284 ] } },
{ "type": "Feature", "properties": { "OBJECTID": 2748, "NAME": "MACEYS OREM", "NBR": "11", "STREETADDR": "880 N STATE ST", "CITY": "OREM", "ZIP": "84057", "TYPE": "Supermarket", "GCSCORE": 100.0, "GCMETHOD": "AddressPoints.AddressGrid", "DAFID": "R28192", "POINT_X": 440422.67124360701, "POINT_Y": 4462750.42541725 }, "geometry": { "type": "Point", "coordinates": [ -111.701168349418396, 40.313151683233734 ] } },
{ "type": "Feature", "properties": { "OBJECTID": 2749, "NAME": "SMITHS", "NBR": "75", "STREETADDR": "632 S 100 W", "CITY": "PAYSON", "ZIP": "84651", "TYPE": "Grocery Store", "GCSCORE": 100.0, "GCMETHOD": "AddressPoints.AddressGrid", "DAFID": "R28207", "POINT_X": 437292.980241207, "POINT_Y": 4431826.9064639099 }, "geometry": { "type": "Point", "coordinates": [ -111.734987047691831, 40.034339351411383 ] } },
{ "type": "Feature", "properties": { "OBJECTID": 2750, "NAME": "SINCLAIR - TUGS ONE STOP", "NBR": null, "STREETADDR": "10 N STATE ST", "CITY": "MARYSVALE", "ZIP": "84750", "TYPE": "Grocery Store", "GCSCORE": null, "GCMETHOD": "Manually Placed", "DAFID": "R28428", "POINT_X": 392669.0, "POINT_Y": 4256416.0 }, "geometry": { "type": "Point", "coordinates": [ -112.230011999444216, 38.449588373479017 ] } },
{ "type": "Feature", "properties": { "OBJECTID": 2751, "NAME": "HARMONS", "NBR": "2", "STREETADDR": "7755 S 700 E", "CITY": "MIDVALE", "ZIP": "84047", "TYPE": "Supermarket", "GCSCORE": 100.0, "GCMETHOD": "AddressPoints.AddressGrid", "DAFID": "R28437", "POINT_X": 426363.44631372602, "POINT_Y": 4495862.00629918 }, "geometry": { "type": "Point", "coordinates": [ -111.870457615525041, 40.610301062658799 ] } },
{ "type": "Feature", "properties": { "OBJECTID": 2752, "NAME": "DANS FOODS", "NBR": null, "STREETADDR": "2330 E 3300 S", "CITY": "SALT LAKE CITY", "ZIP": "84109", "TYPE": "Supermarket", "GCSCORE": 100.0, "GCMETHOD": "AddressPoints.AddressGrid", "DAFID": "R28440", "POINT_X": 430396.49450130097, "POINT_Y": 4505630.6030678097 }, "geometry": { "type": "Point", "coordinates": [ -111.823869843194444, 40.698644647386523 ] } },
{ "type": "Feature", "properties": { "OBJECTID": 2753, "NAME": "PAYSON MARKET", "NBR": null, "STREETADDR": "586 N MAIN ST", "CITY": "PAYSON", "ZIP": "84651", "TYPE": "Grocery Store", "GCSCORE": 100.0, "GCMETHOD": "AddressPoints.AddressGrid", "DAFID": "R28479", "POINT_X": 437656.58406642801, "POINT_Y": 4433771.6098572602 }, "geometry": { "type": "Point", "coordinates": [ -111.730912671715117, 40.051886127266435 ] } },
{ "type": "Feature", "properties": { "OBJECTID": 2754, "NAME": "DAYS MARKET", "NBR": null, "STREETADDR": "3121 N CANYON RD", "CITY": "PROVO", "ZIP": "84604", "TYPE": "Supermarket", "GCSCORE": 100.0, "GCMETHOD": "AddressPoints.AddressGrid", "DAFID": "R28489", "POINT_X": 444570.493330753, "POINT_Y": 4458490.4189435504 }, "geometry": { "type": "Point", "coordinates": [ -111.65198676772593, 40.275059767014547 ] } },
{ "type": "Feature", "properties": { "OBJECTID": 2755, "NAME": "SMITHS", "NBR": "65", "STREETADDR": "8055 W 3500 S", "CITY": "MAGNA", "ZIP": "84044", "TYPE": "Supermarket", "GCSCORE": 100.0, "GCMETHOD": "AddressPoints.AddressGrid", "DAFID": "R28932", "POINT_X": 408431.18004097999, "POINT_Y": 4505503.1043569604 }, "geometry": { "type": "Point", "coordinates": [ -112.083806483381252, 40.695347936563344 ] } },
{ "type": "Feature", "properties": { "OBJECTID": 2756, "NAME": "KOHLERS MARKET", "NBR": null, "STREETADDR": "300 E MAIN ST", "CITY": "LEHI", "ZIP": "84043", "TYPE": "Grocery Store", "GCSCORE": 100.0, "GCMETHOD": "AddressPoints.AddressGrid", "DAFID": "R28958", "POINT_X": 428347.75115750299, "POINT_Y": 4471082.3436569599 }, "geometry": { "type": "Point", "coordinates": [ -111.844200342015242, 40.387259282128547 ] } },
{ "type": "Feature", "properties": { "OBJECTID": 2759, "NAME": "REAMS", "NBR": "9", "STREETADDR": "10650 S 700 E", "CITY": "SANDY", "ZIP": "84070", "TYPE": "Supermarket", "GCSCORE": 100.0, "GCMETHOD": "Centerlines.StatewideRoads", "DAFID": "R29137", "POINT_X": 426145.693704526, "POINT_Y": 4490026.6682626205 }, "geometry": { "type": "Point", "coordinates": [ -111.872348029041078, 40.557717793643477 ] } },
{ "type": "Feature", "properties": { "OBJECTID": 2760, "NAME": "THESTORE", "NBR": null, "STREETADDR": "2050 E 6200 S", "CITY": "SALT LAKE CITY", "ZIP": "84121", "TYPE": "Supermarket", "GCSCORE": 100.0, "GCMETHOD": "AddressPoints.AddressGrid", "DAFID": "R29140", "POINT_X": 429596.55077148997, "POINT_Y": 4498913.3436496099 }, "geometry": { "type": "Point", "coordinates": [ -111.83258442395902, 40.638068898260002 ] } },
{ "type": "Feature", "properties": { "OBJECTID": 2762, "NAME": "MACEY`S MILLCREEK", "NBR": null, "STREETADDR": "4530 S HIGHLAND DR", "CITY": "HOLLADAY", "ZIP": "84117", "TYPE": "Supermarket", "GCSCORE": 100.0, "GCMETHOD": "AddressPoints.AddressGrid", "DAFID": "R29542", "POINT_X": 428789.87570004398, "POINT_Y": 4502827.1837446298 }, "geometry": { "type": "Point", "coordinates": [ -111.842566610197423, 40.673254828216194 ] } },
{ "type": "Feature", "properties": { "OBJECTID": 2763, "NAME": "SMITHS", "NBR": "82", "STREETADDR": "1080 W HWY 40", "CITY": "VERNAL", "ZIP": "84078", "TYPE": "Supermarket", "GCSCORE": 100.0, "GCMETHOD": "AddressPoints.AddressGrid", "DAFID": "R29547", "POINT_X": 623132.50749234494, "POINT_Y": 4479104.1259464296 }, "geometry": { "type": "Point", "coordinates": [ -109.547863428577969, 40.453490803777115 ] } },
{ "type": "Feature", "properties": { "OBJECTID": 2766, "NAME": "DAVIS FOOD & DRUG", "NBR": "4", "STREETADDR": "495 N STATE ST", "CITY": "VERKIN", "ZIP": "84745", "TYPE": "Supermarket", "GCSCORE": 100.0, "GCMETHOD": "AddressPoints.AddressGrid", "DAFID": "R29979", "POINT_X": 298237.54426907602, "POINT_Y": 4120633.8014519201 }, "geometry": { "type": "Point", "coordinates": [ -113.273722475897273, 37.210391888321837 ] } },
{ "type": "Feature", "properties": { "OBJECTID": 2767, "NAME": "STEWARTS MARKET", "NBR": null, "STREETADDR": "245 W HIGHWAY 40", "CITY": "ROOSEVELT", "ZIP": "84066", "TYPE": "Supermarket", "GCSCORE": 100.0, "GCMETHOD": "Centerlines.StatewideRoads", "DAFID": "R30008", "POINT_X": 585346.489974375, "POINT_Y": 4460514.9449287299 }, "geometry": { "type": "Point", "coordinates": [ -109.995894058908277, 40.290781937956893 ] } },
{ "type": "Feature", "properties": { "OBJECTID": 2768, "NAME": "REAMS", "NBR": null, "STREETADDR": "2396 E 7000 S", "CITY": "SALT LAKE CITY", "ZIP": "84121", "TYPE": "Supermarket", "GCSCORE": 100.0, "GCMETHOD": "Centerlines.StatewideRoads", "DAFID": "R30092", "POINT_X": 430440.91504283901, "POINT_Y": 4497325.6119951801 }, "geometry": { "type": "Point", "coordinates": [ -111.822424525661603, 40.623838359367411 ] } },
{ "type": "Feature", "properties": { "OBJECTID": 2769, "NAME": "HARMONS", "NBR": "73", "STREETADDR": "5454 S REDWOOD RD", "CITY": "TAYLORSVILLE", "ZIP": "84123", "TYPE": "Supermarket", "GCSCORE": 100.0, "GCMETHOD": "AddressPoints.AddressGrid", "DAFID": "R30197", "POINT_X": 420475.28352995799, "POINT_Y": 4500568.4879757296 }, "geometry": { "type": "Point", "coordinates": [ -111.940647704982723, 40.652149583240842 ] } },
{ "type": "Feature", "properties": { "OBJECTID": 2770, "NAME": "STANS MARKET", "NBR": null, "STREETADDR": "4195 W 5415 S", "CITY": "KEARNS", "ZIP": "84118", "TYPE": "Supermarket", "GCSCORE": 100.0, "GCMETHOD": "AddressPoints.AddressGrid", "DAFID": "R30200", "POINT_X": 416217.50459433801, "POINT_Y": 4500606.8642802201 }, "geometry": { "type": "Point", "coordinates": [ -111.991008306016283, 40.65207397297273 ] } },
{ "type": "Feature", "properties": { "OBJECTID": 2771, "NAME": "LUCKY`S", "NBR": null, "STREETADDR": "1585 W 3500 S", "CITY": "WEST VALLEY CITY", "ZIP": "84119", "TYPE": "Supermarket", "GCSCORE": 100.0, "GCMETHOD": "AddressPoints.AddressGrid", "DAFID": "R30340", "POINT_X": 420901.57166896202, "POINT_Y": 4505376.7054930301 }, "geometry": { "type": "Point", "coordinates": [ -111.936211816998281, 40.695500827394071 ] } },
{ "type": "Feature", "properties": { "OBJECTID": 2772, "NAME": "STANDARD MARKET", "NBR": null, "STREETADDR": "9009 W 2700 S", "CITY": "MAGNA", "ZIP": "84044", "TYPE": "Grocery Store", "GCSCORE": 100.0, "GCMETHOD": "Centerlines.StatewideRoads", "DAFID": "R30354", "POINT_X": 406532.63038403401, "POINT_Y": 4507247.8748968104 }, "geometry": { "type": "Point", "coordinates": [ -112.106533767268402, 40.71084998963174 ] } },
{ "type": "Feature", "properties": { "OBJECTID": 2773, "NAME": "BOWMANS SUPERSTORE", "NBR": null, "STREETADDR": "326 N MAIN ST", "CITY": "KAYSVILLE", "ZIP": "84037", "TYPE": "Supermarket", "GCSCORE": 100.0, "GCMETHOD": "AddressPoints.AddressGrid", "DAFID": "R3037", "POINT_X": 420925.51074226497, "POINT_Y": 4543783.0956637301 }, "geometry": { "type": "Point", "coordinates": [ -111.940812673984894, 41.04143862381494 ] } },
{ "type": "Feature", "properties": { "OBJECTID": 2774, "NAME": "DAVIS FOOD & DRUG", "NBR": "3", "STREETADDR": "3765 S 2700 W", "CITY": "WEST VALLEY CITY", "ZIP": "84119", "TYPE": "Supermarket", "GCSCORE": 100.0, "GCMETHOD": "Centerlines.StatewideRoads", "DAFID": "R30376", "POINT_X": 419070.018119485, "POINT_Y": 4504810.4503524704 }, "geometry": { "type": "Point", "coordinates": [ -111.957814187601372, 40.690222452662603 ] } },
{ "type": "Feature", "properties": { "OBJECTID": 2776, "NAME": "SMITHS", "NBR": "66", "STREETADDR": "4065 S REDWOOD RD", "CITY": "MURRAY", "ZIP": "84123", "TYPE": "Supermarket", "GCSCORE": 100.0, "GCMETHOD": "AddressPoints.AddressGrid", "DAFID": "R30408", "POINT_X": 420752.41015027999, "POINT_Y": 4504027.5483274898 }, "geometry": { "type": "Point", "coordinates": [ -111.93780664421152, 40.683333929954124 ] } },
{ "type": "Feature", "properties": { "OBJECTID": 2777, "NAME": "REAMS", "NBR": "2", "STREETADDR": "2783 S STATE ST", "CITY": "SALT LAKE CITY", "ZIP": "84115", "TYPE": "Supermarket", "GCSCORE": 100.0, "GCMETHOD": "AddressPoints.AddressGrid", "DAFID": "R30452", "POINT_X": 425063.26018065598, "POINT_Y": 4507016.43804006 }, "geometry": { "type": "Point", "coordinates": [ -111.887155822325738, 40.710659914535071 ] } },
{ "type": "Feature", "properties": { "OBJECTID": 2778, "NAME": "FISH LAKE RESORTS", "NBR": null, "STREETADDR": "2 N HIGHWAY 25", "CITY": "RICHFIELD", "ZIP": "84701", "TYPE": "Grocery Store", "GCSCORE": null, "GCMETHOD": "Manually Placed", "DAFID": "R30552", "POINT_X": 435648.0, "POINT_Y": 4265482.0 }, "geometry": { "type": "Point", "coordinates": [ -111.738357147597426, 38.535421082727446 ] } },
{ "type": "Feature", "properties": { "OBJECTID": 2783, "NAME": "BIMBO BAKERIES USA", "NBR": null, "STREETADDR": "4370 WASHINGTON BLVD SOUTH", "CITY": "OGDEN", "ZIP": "84403", "TYPE": "Grocery Store", "GCSCORE": 92.430000305175795, "GCMETHOD": "AddressPoints.AddressGrid", "DAFID": "R31097", "POINT_X": 418554.57489836501, "POINT_Y": 4559416.3894946696 }, "geometry": { "type": "Point", "coordinates": [ -111.971090399798825, 41.182010434809236 ] } },
{ "type": "Feature", "properties": { "OBJECTID": 2784, "NAME": "SMITHS", "NBR": "69 (ROSEPARK)", "STREETADDR": "1174 W 600 N", "CITY": "SALT LAKE CITY", "ZIP": "84116", "TYPE": "Supermarket", "GCSCORE": 100.0, "GCMETHOD": "AddressPoints.AddressGrid", "DAFID": "R31289", "POINT_X": 421971.59046885901, "POINT_Y": 4515121.5093705496 }, "geometry": { "type": "Point", "coordinates": [ -111.92476367039346, 40.783378958953129 ] } },
{ "type": "Feature", "properties": { "OBJECTID": 2785, "NAME": "ASSOCIATED FRESH MARKETS", "NBR": "2365", "STREETADDR": "1740 PARK AVE", "CITY": "PARK CITY", "ZIP": "84060", "TYPE": "Supermarket", "GCSCORE": 100.0, "GCMETHOD": "Centerlines.StatewideRoads", "DAFID": "R31410", "POINT_X": 457089.91153846303, "POINT_Y": 4500976.2545662196 }, "geometry": { "type": "Point", "coordinates": [ -111.507608819471812, 40.658539117965866 ] } },
{ "type": "Feature", "properties": { "OBJECTID": 2786, "NAME": "SMITHS", "NBR": "178", "STREETADDR": "156 S MAIN ST", "CITY": "BRIGHAM CITY", "ZIP": "84302", "TYPE": "Supermarket", "GCSCORE": 100.0, "GCMETHOD": "AddressPoints.AddressGrid", "DAFID": "R31412", "POINT_X": 415164.08095313603, "POINT_Y": 4595506.0286852596 }, "geometry": { "type": "Point", "coordinates": [ -112.016553633338489, 41.506695603304991 ] } },
{ "type": "Feature", "properties": { "OBJECTID": 2788, "NAME": "CHUCK WAGON GENERAL STORE", "NBR": null, "STREETADDR": "CTR & MAIN ST", "CITY": "TORREY", "ZIP": "84775", "TYPE": "Grocery Store", "GCSCORE": 88.529998779296903, "GCMETHOD": "Centerlines.StatewideRoads", "DAFID": "R31542", "POINT_X": 463181.995623981, "POINT_Y": 4239079.5012254203 }, "geometry": { "type": "Point", "coordinates": [ -111.421067368469949, 38.299047858504537 ] } },
{ "type": "Feature", "properties": { "OBJECTID": 2789, "NAME": "LDS MAGNA BISHOPS STOREHOUSE", "NBR": null, "STREETADDR": "3648 S 7200 W", "CITY": "MAGNA", "ZIP": "84044", "TYPE": "Grocery Store", "GCSCORE": 100.0, "GCMETHOD": "AddressPoints.AddressGrid", "DAFID": "R31805", "POINT_X": 410145.53511368699, "POINT_Y": 4505227.8084944999 }, "geometry": { "type": "Point", "coordinates": [ -112.063479382007898, 40.693057019183101 ] } },
{ "type": "Feature", "properties": { "OBJECTID": 2790, "NAME": "ANA`S LASAL STORE", "NBR": null, "STREETADDR": "2 Main St", "CITY": "LASAL", "ZIP": "84530", "TYPE": "Grocery Store", "GCSCORE": null, "GCMETHOD": "Manually Placed", "DAFID": "R32049", "POINT_X": 653023.0, "POINT_Y": 4241953.0 }, "geometry": { "type": "Point", "coordinates": [ -109.249694329872881, 38.31263988710549 ] } },
{ "type": "Feature", "properties": { "OBJECTID": 2791, "NAME": "MELON VINE GROCERY", "NBR": null, "STREETADDR": "76 S BROADWAY", "CITY": "GREEN RIVER", "ZIP": "84525", "TYPE": "Grocery Store", "GCSCORE": 100.0, "GCMETHOD": "Centerlines.StatewideRoads", "DAFID": "R32094", "POINT_X": 572281.68809534702, "POINT_Y": 4316509.0452956501 }, "geometry": { "type": "Point", "coordinates": [ -110.165330241285474, 38.994607174158745 ] } },
{ "type": "Feature", "properties": { "OBJECTID": 2792, "NAME": "LIN`S INC PRICE", "NBR": null, "STREETADDR": "760 W PRICE RIVER DR", "CITY": "PRICE", "ZIP": "84501", "TYPE": "Supermarket", "GCSCORE": 100.0, "GCMETHOD": "AddressPoints.AddressGrid", "DAFID": "R32110", "POINT_X": 515111.74462374701, "POINT_Y": 4383353.0535248099 }, "geometry": { "type": "Point", "coordinates": [ -110.82398890026623, 39.599783167346963 ] } },
{ "type": "Feature", "properties": { "OBJECTID": 2799, "NAME": "SMITHS", "NBR": "63", "STREETADDR": "550 N MAIN ST", "CITY": "HEBER CITY", "ZIP": "84032", "TYPE": "Grocery Store", "GCSCORE": 100.0, "GCMETHOD": "AddressPoints.AddressGrid", "DAFID": "R33389", "POINT_X": 465131.23365473002, "POINT_Y": 4485005.5147375502 }, "geometry": { "type": "Point", "coordinates": [ -111.411603419443082, 40.515043402895543 ] } },
{ "type": "Feature", "properties": { "OBJECTID": 2801, "NAME": "THEGROCERY STORE", "NBR": null, "STREETADDR": "1224 S 400 E", "CITY": "SALT LAKE CITY", "ZIP": "84111", "TYPE": "Grocery Store", "GCSCORE": 100.0, "GCMETHOD": "AddressPoints.AddressGrid", "DAFID": "R33406", "POINT_X": 425712.28124449, "POINT_Y": 4510522.4994452996 }, "geometry": { "type": "Point", "coordinates": [ -111.879889074848748, 40.742299942525079 ] } },
{ "type": "Feature", "properties": { "OBJECTID": 2805, "NAME": "HARMONS EMIGRATION MARKET", "NBR": null, "STREETADDR": "1706 E 1300 S", "CITY": "SALT LAKE CITY", "ZIP": "84108", "TYPE": "Grocery Store", "GCSCORE": 100.0, "GCMETHOD": "AddressPoints.AddressGrid", "DAFID": "R33692", "POINT_X": 428918.89192121499, "POINT_Y": 4510398.2585088899 }, "geometry": { "type": "Point", "coordinates": [ -111.841898872796762, 40.741464135687004 ] } },
{ "type": "Feature", "properties": { "OBJECTID": 2806, "NAME": "JOHNS MARKETPLACE", "NBR": null, "STREETADDR": "4141 S REDWOOD RD", "CITY": "TAYLORSVILLE", "ZIP": "84123", "TYPE": "Grocery Store", "GCSCORE": 100.0, "GCMETHOD": "AddressPoints.AddressGrid", "DAFID": "R33707", "POINT_X": 420782.210433156, "POINT_Y": 4503790.3572883103 }, "geometry": { "type": "Point", "coordinates": [ -111.937424098165721, 40.681200287724842 ] } },
{ "type": "Feature", "properties": { "OBJECTID": 2807, "NAME": "ASSOCIATED FRESH MARKETS", "NBR": "2367", "STREETADDR": "1825 W 4700 S", "CITY": "TAYLORSVILLE", "ZIP": "84118", "TYPE": "Supermarket", "GCSCORE": 100.0, "GCMETHOD": "AddressPoints.AddressGrid", "DAFID": "R33771", "POINT_X": 420438.536112695, "POINT_Y": 4502154.1888022097 }, "geometry": { "type": "Point", "coordinates": [ -111.941283103608953, 40.666429340312376 ] } },
{ "type": "Feature", "properties": { "OBJECTID": 2808, "NAME": "SMITHS", "NBR": "133", "STREETADDR": "845 E 4500 S", "CITY": "SALT LAKE CITY", "ZIP": "84107", "TYPE": "Supermarket", "GCSCORE": 100.0, "GCMETHOD": "AddressPoints.AddressGrid", "DAFID": "R33781", "POINT_X": 426709.26463958999, "POINT_Y": 4503074.1550681898 }, "geometry": { "type": "Point", "coordinates": [ -111.867210769126132, 40.675297180731448 ] } },
{ "type": "Feature", "properties": { "OBJECTID": 2809, "NAME": "SUPERMERCADO", "NBR": null, "STREETADDR": "1179 NAVAJO ST", "CITY": "SALT LAKE CITY", "ZIP": "84104", "TYPE": "Supermarket", "GCSCORE": 100.0, "GCMETHOD": "AddressPoints.AddressGrid", "DAFID": "R33865", "POINT_X": 421555.42370600702, "POINT_Y": 4510636.5354728904 }, "geometry": { "type": "Point", "coordinates": [ -111.929132465220789, 40.742941251760662 ] } },
{ "type": "Feature", "properties": { "OBJECTID": 2812, "NAME": "LIBERTY HEIGHTS FRESH", "NBR": null, "STREETADDR": "1290 S 1100 E", "CITY": "SALT LAKE CITY", "ZIP": "84105", "TYPE": "Grocery Store", "GCSCORE": 100.0, "GCMETHOD": "AddressPoints.AddressGrid", "DAFID": "R34818", "POINT_X": 427400.803836526, "POINT_Y": 4510459.8986641997 }, "geometry": { "type": "Point", "coordinates": [ -111.859884601576226, 40.74188680224762 ] } },
{ "type": "Feature", "properties": { "OBJECTID": 2813, "NAME": "ASSOCIATED FRESH MARKETS", "NBR": "2371", "STREETADDR": "2040 S 2300 E", "CITY": "SALT LAKE CITY", "ZIP": "84108", "TYPE": "Supermarket", "GCSCORE": 100.0, "GCMETHOD": "AddressPoints.AddressGrid", "DAFID": "R35226", "POINT_X": 430243.31645301799, "POINT_Y": 4508683.9660856901 }, "geometry": { "type": "Point", "coordinates": [ -111.826022686969324, 40.726135636454721 ] } },
{ "type": "Feature", "properties": { "OBJECTID": 2814, "NAME": "LINS RICHFIELD", "NBR": null, "STREETADDR": "250 S MAIN", "CITY": "RICHFIELD", "ZIP": "84701", "TYPE": "Supermarket", "GCSCORE": 90.919998168945298, "GCMETHOD": "AddressPoints.AddressGrid", "DAFID": "R35227", "POINT_X": 405665.03021429299, "POINT_Y": 4291207.2306024898 }, "geometry": { "type": "Point", "coordinates": [ -112.085819275728014, 38.764538549397088 ] } },
{ "type": "Feature", "properties": { "OBJECTID": 2815, "NAME": "ASSOCIATED FRESH MARKETS", "NBR": "2350", "STREETADDR": "1638 S 900 E", "CITY": "SALT LAKE CITY", "ZIP": "84105", "TYPE": "Supermarket", "GCSCORE": 100.0, "GCMETHOD": "AddressPoints.AddressGrid", "DAFID": "R35228", "POINT_X": 426832.96261359501, "POINT_Y": 4509586.9752180399 }, "geometry": { "type": "Point", "coordinates": [ -111.866507458857001, 40.73397353093646 ] } },
{ "type": "Feature", "properties": { "OBJECTID": 2816, "NAME": "RIDLEYS FAMILY MARKETS", "NBR": "151", "STREETADDR": "74 S 100 E", "CITY": "TREMONTON", "ZIP": "84337", "TYPE": "Supermarket", "GCSCORE": 100.0, "GCMETHOD": "AddressPoints.AddressGrid", "DAFID": "R35238", "POINT_X": 403084.44127072598, "POINT_Y": 4618341.3847143399 }, "geometry": { "type": "Point", "coordinates": [ -112.164965839670231, 41.710966926587027 ] } },
{ "type": "Feature", "properties": { "OBJECTID": 2817, "NAME": "SMITHS", "NBR": "131", "STREETADDR": "1485 S HARRISON BLVD", "CITY": "OGDEN", "ZIP": "84404", "TYPE": "Supermarket", "GCSCORE": 100.0, "GCMETHOD": "AddressPoints.AddressGrid", "DAFID": "R35259", "POINT_X": 420678.26097644202, "POINT_Y": 4565928.3673566896 }, "geometry": { "type": "Point", "coordinates": [ -111.946617843896902, 41.240872415628516 ] } },
{ "type": "Feature", "properties": { "OBJECTID": 2822, "NAME": "KENTS FOODS", "NBR": null, "STREETADDR": "260 N MAIN ST", "CITY": "BRIGHAM CITY", "ZIP": "84302", "TYPE": "Supermarket", "GCSCORE": 100.0, "GCMETHOD": "AddressPoints.AddressGrid", "DAFID": "R36072", "POINT_X": 415316.06169970101, "POINT_Y": 4596587.1155649899 }, "geometry": { "type": "Point", "coordinates": [ -112.014884864238482, 41.516447975156815 ] } },
{ "type": "Feature", "properties": { "OBJECTID": 2824, "NAME": "SMITHS", "NBR": "135", "STREETADDR": "1316 N HWY 89", "CITY": "FARMINGTON", "ZIP": "84025", "TYPE": "Supermarket", "GCSCORE": 100.0, "GCMETHOD": "AddressPoints.AddressGrid", "DAFID": "R36277", "POINT_X": 423729.946379703, "POINT_Y": 4539432.1081815697 }, "geometry": { "type": "Point", "coordinates": [ -111.906912485906062, 41.002516544001175 ] } },
{ "type": "Feature", "properties": { "OBJECTID": 2826, "NAME": "FOODTOWN", "NBR": null, "STREETADDR": "135 S MAIN", "CITY": "LOA", "ZIP": "84747", "TYPE": "Grocery Store", "GCSCORE": 90.919998168945298, "GCMETHOD": "AddressPoints.AddressGrid", "DAFID": "R36360", "POINT_X": 443929.28257231199, "POINT_Y": 4250365.0623466 }, "geometry": { "type": "Point", "coordinates": [ -111.642136740321931, 38.399754069386383 ] } },
{ "type": "Feature", "properties": { "OBJECTID": 2827, "NAME": "PARES MARKET", "NBR": null, "STREETADDR": "1745 W CARRIAGE SQ", "CITY": "TAYLORSVILLE", "ZIP": "84129", "TYPE": "Grocery Store", "GCSCORE": 100.0, "GCMETHOD": "AddressPoints.AddressGrid", "DAFID": "R36396", "POINT_X": 420595.02066281502, "POINT_Y": 4503701.3184146099 }, "geometry": { "type": "Point", "coordinates": [ -111.939627655233409, 40.680380258562607 ] } },
{ "type": "Feature", "properties": { "OBJECTID": 2832, "NAME": "LAINIES", "NBR": null, "STREETADDR": "6990 N HWY 38", "CITY": "HONEYVILLE", "ZIP": "84314", "TYPE": "Grocery Store", "GCSCORE": 100.0, "GCMETHOD": "AddressPoints.AddressGrid", "DAFID": "R36871", "POINT_X": 410104.22124336002, "POINT_Y": 4610002.2687422102 }, "geometry": { "type": "Point", "coordinates": [ -112.079344819374199, 41.63669304223842 ] } },
{ "type": "Feature", "properties": { "OBJECTID": 2833, "NAME": "SMITHS", "NBR": "136", "STREETADDR": "350 FREEDOM BLVD", "CITY": "PROVO", "ZIP": "84601", "TYPE": "Supermarket", "GCSCORE": 100.0, "GCMETHOD": "AddressPoints.AddressGrid", "DAFID": "R36983", "POINT_X": 443742.59399803902, "POINT_Y": 4454431.4268984003 }, "geometry": { "type": "Point", "coordinates": [ -111.661368047319826, 40.238437836719321 ] } },
{ "type": "Feature", "properties": { "OBJECTID": 2835, "NAME": "ASSOCIATED FRESH MARKETS", "NBR": "2372", "STREETADDR": "3865 S 2300 E", "CITY": "SALT LAKE CITY", "ZIP": "84109", "TYPE": "Supermarket", "GCSCORE": 100.0, "GCMETHOD": "AddressPoints.AddressGrid", "DAFID": "R37057", "POINT_X": 430431.77313564299, "POINT_Y": 4504407.1277773697 }, "geometry": { "type": "Point", "coordinates": [ -111.823316600449601, 40.68762681843539 ] } },
{ "type": "Feature", "properties": { "OBJECTID": 2838, "NAME": "MACEYS", "NBR": null, "STREETADDR": "187 E 1000 N", "CITY": "SPANISH FORK", "ZIP": "84660", "TYPE": "Supermarket", "GCSCORE": 100.0, "GCMETHOD": "AddressPoints.AddressGrid", "DAFID": "R37198", "POINT_X": 444484.18319120997, "POINT_Y": 4441743.2864620397 }, "geometry": { "type": "Point", "coordinates": [ -111.651555954755082, 40.124180790934183 ] } },
{ "type": "Feature", "properties": { "OBJECTID": 2839, "NAME": "SAN JUAN TRADING CO", "NBR": null, "STREETADDR": "HWY 163", "CITY": "MEXICAN HAT", "ZIP": "84531", "TYPE": "Grocery Store", "GCSCORE": null, "GCMETHOD": "Manually Placed", "DAFID": "R37294", "POINT_X": 600543.0, "POINT_Y": 4112280.0 }, "geometry": { "type": "Point", "coordinates": [ -109.867768638432096, 37.151510511550391 ] } },
{ "type": "Feature", "properties": { "OBJECTID": 2840, "NAME": "STEWARTS THRIFTWAY", "NBR": null, "STREETADDR": "621 E MAIN ST", "CITY": "CASTLE DALE", "ZIP": "84513", "TYPE": "Grocery Store", "GCSCORE": 100.0, "GCMETHOD": "Centerlines.StatewideRoads", "DAFID": "R37399", "POINT_X": 499358.55308175, "POINT_Y": 4340294.9952941798 }, "geometry": { "type": "Point", "coordinates": [ -111.007431391713951, 39.211931398303143 ] } },
{ "type": "Feature", "properties": { "OBJECTID": 2844, "NAME": "MACEYS WEST JORDAN", "NBR": null, "STREETADDR": "7859 S 3200 W", "CITY": "WEST JORDAN", "ZIP": "84088", "TYPE": "Supermarket", "GCSCORE": 100.0, "GCMETHOD": "AddressPoints.AddressGrid", "DAFID": "R37441", "POINT_X": 418301.66579360701, "POINT_Y": 4495752.6689847298 }, "geometry": { "type": "Point", "coordinates": [ -111.965729293780242, 40.608558558566763 ] } },
{ "type": "Feature", "properties": { "OBJECTID": 2846, "NAME": "GOOD EARTH NATURAL FOODS", "NBR": null, "STREETADDR": "7905 S 700 E", "CITY": "SANDY", "ZIP": "84070", "TYPE": "Grocery Store", "GCSCORE": 100.0, "GCMETHOD": "AddressPoints.AddressGrid", "DAFID": "R37594", "POINT_X": 426289.582543205, "POINT_Y": 4495513.4731612802 }, "geometry": { "type": "Point", "coordinates": [ -111.87128987539738, 40.607154956931183 ] } },
{ "type": "Feature", "properties": { "OBJECTID": 2850, "NAME": "SMITHS", "NBR": "189", "STREETADDR": "20 N BLUFF ST", "CITY": "SAINT GEORGE", "ZIP": "84770", "TYPE": "Supermarket", "GCSCORE": 100.0, "GCMETHOD": "AddressPoints.AddressGrid", "DAFID": "R37973", "POINT_X": 269727.01290195301, "POINT_Y": 4110089.2348320601 }, "geometry": { "type": "Point", "coordinates": [ -113.591489240166354, 37.108838002254089 ] } },
{ "type": "Feature", "properties": { "OBJECTID": 2852, "NAME": "MOUNT NEBO THRIFTWAY", "NBR": null, "STREETADDR": "965 N MAIN ST", "CITY": "NEPHI", "ZIP": "84648", "TYPE": "Supermarket", "GCSCORE": 100.0, "GCMETHOD": "AddressPoints.AddressGrid", "DAFID": "R38218", "POINT_X": 428242.14496934199, "POINT_Y": 4397282.0858149696 }, "geometry": { "type": "Point", "coordinates": [ -111.837268353783116, 39.722403118354357 ] } },
{ "type": "Feature", "properties": { "OBJECTID": 2855, "NAME": "NPS", "NBR": null, "STREETADDR": "1600 S EMPIRE RD", "CITY": "SALT LAKE CITY", "ZIP": "84104", "TYPE": "Grocery Store", "GCSCORE": 100.0, "GCMETHOD": "AddressPoints.AddressGrid", "DAFID": "R39160", "POINT_X": 420352.43480484601, "POINT_Y": 4509822.8784617698 }, "geometry": { "type": "Point", "coordinates": [ -111.943275779208108, 40.735496701289456 ] } },
{ "type": "Feature", "properties": { "OBJECTID": 2859, "NAME": "LA DIANA", "NBR": null, "STREETADDR": "56 S 900 W", "CITY": "SALT LAKE CITY", "ZIP": "84104", "TYPE": "Grocery Store", "GCSCORE": 100.0, "GCMETHOD": "AddressPoints.AddressGrid", "DAFID": "R39938", "POINT_X": 422595.642223028, "POINT_Y": 4513385.7490491103 }, "geometry": { "type": "Point", "coordinates": [ -111.917153503980472, 40.767803244215614 ] } },
{ "type": "Feature", "properties": { "OBJECTID": 2862, "NAME": "PETERSONS FRESH MARKET", "NBR": null, "STREETADDR": "1784 W 12600 S", "CITY": "RIVERTON", "ZIP": "84065", "TYPE": "Supermarket", "GCSCORE": 100.0, "GCMETHOD": "AddressPoints.AddressGrid", "DAFID": "R40258", "POINT_X": 420418.084528698, "POINT_Y": 4486307.63604433 }, "geometry": { "type": "Point", "coordinates": [ -111.939524357067697, 40.523686934069559 ] } },
{ "type": "Feature", "properties": { "OBJECTID": 2863, "NAME": "DANS FOODS", "NBR": null, "STREETADDR": "1360 S FOOTHILL DR", "CITY": "SALT LAKE CITY", "ZIP": "84108", "TYPE": "Supermarket", "GCSCORE": 100.0, "GCMETHOD": "AddressPoints.AddressGrid", "DAFID": "R40626", "POINT_X": 430139.93084187998, "POINT_Y": 4510243.47941761 }, "geometry": { "type": "Point", "coordinates": [ -111.827420855091248, 40.74017452525954 ] } },
{ "type": "Feature", "properties": { "OBJECTID": 2865, "NAME": "DICKS MARKET", "NBR": null, "STREETADDR": "84 W PARRISH LN", "CITY": "CENTERVILLE", "ZIP": "84014", "TYPE": "Supermarket", "GCSCORE": 100.0, "GCMETHOD": "AddressPoints.AddressGrid", "DAFID": "R41570", "POINT_X": 425847.14475312101, "POINT_Y": 4530515.1897146497 }, "geometry": { "type": "Point", "coordinates": [ -111.880671854304239, 40.922395121229897 ] } },
{ "type": "Feature", "properties": { "OBJECTID": 2867, "NAME": "ASSOCIATED FRESH MARKETS", "NBR": "2312", "STREETADDR": "560 W CTR ST", "CITY": "PROVO", "ZIP": "84601", "TYPE": "Grocery Store", "GCSCORE": 100.0, "GCMETHOD": "AddressPoints.AddressGrid", "DAFID": "R421", "POINT_X": 443127.81437112798, "POINT_Y": 4453953.0074072704 }, "geometry": { "type": "Point", "coordinates": [ -111.668552570888593, 40.234086333992451 ] } },
{ "type": "Feature", "properties": { "OBJECTID": 2868, "NAME": "SMITHS", "NBR": "140", "STREETADDR": "2350 N MAIN ST", "CITY": "SUNSET", "ZIP": "84015", "TYPE": "Supermarket", "GCSCORE": 100.0, "GCMETHOD": "Centerlines.StatewideRoads", "DAFID": "R42174", "POINT_X": 413915.93398409401, "POINT_Y": 4555681.4364731004 }, "geometry": { "type": "Point", "coordinates": [ -112.025864616827704, 41.147891845369294 ] } },
{ "type": "Feature", "properties": { "OBJECTID": 2869, "NAME": "MACEYS LOGAN", "NBR": "1374", "STREETADDR": "49 E 400 N", "CITY": "LOGAN", "ZIP": "84321", "TYPE": "Supermarket", "GCSCORE": 100.0, "GCMETHOD": "AddressPoints.AddressGrid", "DAFID": "R422", "POINT_X": 430745.013717086, "POINT_Y": 4621273.4234784804 }, "geometry": { "type": "Point", "coordinates": [ -111.832856915079219, 41.740263393706641 ] } },
{ "type": "Feature", "properties": { "OBJECTID": 2871, "NAME": "GUNNISON THRIFTWAY", "NBR": null, "STREETADDR": "520 S MAIN ST", "CITY": "GUNNISON", "ZIP": "84634", "TYPE": "Supermarket", "GCSCORE": 100.0, "GCMETHOD": "AddressPoints.AddressGrid", "DAFID": "R42373", "POINT_X": 429146.61592355598, "POINT_Y": 4333201.10565631 }, "geometry": { "type": "Point", "coordinates": [ -111.819919587155596, 39.145124021920637 ] } },
{ "type": "Feature", "properties": { "OBJECTID": 2873, "NAME": "SAMS CLUB", "NBR": "6683", "STREETADDR": "6525 S STATE ST", "CITY": "MURRAY", "ZIP": "84107", "TYPE": "Supermarket", "GCSCORE": 100.0, "GCMETHOD": "AddressPoints.AddressGrid", "DAFID": "R42617", "POINT_X": 424994.631124623, "POINT_Y": 4498103.1393225202 }, "geometry": { "type": "Point", "coordinates": [ -111.88690354145497, 40.630365545501341 ] } },
{ "type": "Feature", "properties": { "OBJECTID": 2874, "NAME": "ALBERTSONS", "NBR": "339", "STREETADDR": "740 N MAIN", "CITY": "TOOELE", "ZIP": "84074", "TYPE": "Grocery Store", "GCSCORE": 90.919998168945298, "GCMETHOD": "AddressPoints.AddressGrid", "DAFID": "R429", "POINT_X": 390196.51155176101, "POINT_Y": 4489004.0987344002 }, "geometry": { "type": "Point", "coordinates": [ -112.296705899836795, 40.544521231884822 ] } },
{ "type": "Feature", "properties": { "OBJECTID": 2875, "NAME": "WAL-MART STORE INC", "NBR": "1572", "STREETADDR": "1851 W HWY 40", "CITY": "VERNAL", "ZIP": "84078", "TYPE": "Supermarket", "GCSCORE": 100.0, "GCMETHOD": "Centerlines.StatewideRoads", "DAFID": "R43136", "POINT_X": 621795.10254571203, "POINT_Y": 4477573.6943352697 }, "geometry": { "type": "Point", "coordinates": [ -109.563924537746701, 40.43990440161398 ] } },
{ "type": "Feature", "properties": { "OBJECTID": 2877, "NAME": "ASSOCIATED FRESH MARKETS", "NBR": "2382", "STREETADDR": "2044 S HARRISON BLVD", "CITY": "OGDEN", "ZIP": "84401", "TYPE": "Supermarket", "GCSCORE": 100.0, "GCMETHOD": "AddressPoints.AddressGrid", "DAFID": "R436", "POINT_X": 420654.210526234, "POINT_Y": 4564689.8353010397 }, "geometry": { "type": "Point", "coordinates": [ -111.946743844324743, 41.229715043541944 ] } },
{ "type": "Feature", "properties": { "OBJECTID": 2878, "NAME": "SMITHS", "NBR": "28", "STREETADDR": "922 E 2100 S", "CITY": "SALT LAKE CITY", "ZIP": "84106", "TYPE": "Supermarket", "GCSCORE": 100.0, "GCMETHOD": "AddressPoints.AddressGrid", "DAFID": "R43633", "POINT_X": 426976.235078478, "POINT_Y": 4508530.5861667702 }, "geometry": { "type": "Point", "coordinates": [ -111.864687677956809, 40.724470686193257 ] } },
{ "type": "Feature", "properties": { "OBJECTID": 2879, "NAME": "SMITHS", "NBR": "144", "STREETADDR": "45 S STATE ST", "CITY": "OREM", "ZIP": "84058", "TYPE": "Grocery Store", "GCSCORE": 100.0, "GCMETHOD": "AddressPoints.AddressGrid", "DAFID": "R43653", "POINT_X": 441217.05308927398, "POINT_Y": 4460892.4498268301 }, "geometry": { "type": "Point", "coordinates": [ -111.691649156799571, 40.296470055231957 ] } },
{ "type": "Feature", "properties": { "OBJECTID": 2880, "NAME": "MACEY`S MURRAY", "NBR": null, "STREETADDR": "5632 S 900 E", "CITY": "MURRAY", "ZIP": "84121", "TYPE": "Supermarket", "GCSCORE": 100.0, "GCMETHOD": "AddressPoints.AddressGrid", "DAFID": "R437", "POINT_X": 426602.106135829, "POINT_Y": 4500141.2252888205 }, "geometry": { "type": "Point", "coordinates": [ -111.868135897454607, 40.648868591219717 ] } },
{ "type": "Feature", "properties": { "OBJECTID": 2882, "NAME": "REAMS", "NBR": null, "STREETADDR": "759 E 400 S", "CITY": "SPRINGVILLE", "ZIP": "84663", "TYPE": "Supermarket", "GCSCORE": 100.0, "GCMETHOD": "Centerlines.StatewideRoads", "DAFID": "R44130", "POINT_X": 449162.92493591702, "POINT_Y": 4445817.5805249596 }, "geometry": { "type": "Point", "coordinates": [ -111.596968758726959, 40.161182264427133 ] } },
{ "type": "Feature", "properties": { "OBJECTID": 2883, "NAME": "RIDLEY`S FAMILY MARKETS", "NBR": "160", "STREETADDR": "25 W CTR ST", "CITY": "OREM", "ZIP": "84058", "TYPE": "Supermarket", "GCSCORE": 100.0, "GCMETHOD": "AddressPoints.AddressGrid", "DAFID": "R442", "POINT_X": 440846.30025902699, "POINT_Y": 4460843.3395732297 }, "geometry": { "type": "Point", "coordinates": [ -111.696006624235295, 40.296001483385972 ] } },
{ "type": "Feature", "properties": { "OBJECTID": 2888, "NAME": "PACIFIC MART", "NBR": null, "STREETADDR": "4090 W 5415 S", "CITY": "KEARNS", "ZIP": "84118", "TYPE": "Grocery Store", "GCSCORE": null, "GCMETHOD": "Manually Placed", "DAFID": "R45434", "POINT_X": 416375.0, "POINT_Y": 4500800.0 }, "geometry": { "type": "Point", "coordinates": [ -111.989171360854002, 40.653829607090437 ] } },
{ "type": "Feature", "properties": { "OBJECTID": 2892, "NAME": "DANS SUPERMARKET", "NBR": null, "STREETADDR": "3981 S WASATCH BLVD", "CITY": "SALT LAKE CITY", "ZIP": "84124", "TYPE": "Supermarket", "GCSCORE": 100.0, "GCMETHOD": "AddressPoints.AddressGrid", "DAFID": "R45546", "POINT_X": 432875.83487807499, "POINT_Y": 4504096.0451234505 }, "geometry": { "type": "Point", "coordinates": [ -111.794361441637207, 40.685027301746004 ] } },
{ "type": "Feature", "properties": { "OBJECTID": 2893, "NAME": "WAL-MART SUPER CENTER", "NBR": "1686", "STREETADDR": "5469 S REDWOOD RD", "CITY": "TAYLORSVILLE", "ZIP": "84123", "TYPE": "Supermarket", "GCSCORE": 100.0, "GCMETHOD": "AddressPoints.AddressGrid", "DAFID": "R45722", "POINT_X": 420800.83125929401, "POINT_Y": 4500426.0995650198 }, "geometry": { "type": "Point", "coordinates": [ -111.936779563271116, 40.650898315064687 ] } },
{ "type": "Feature", "properties": { "OBJECTID": 2895, "NAME": "WAL-MART STORE INC", "NBR": "1573", "STREETADDR": "255 S HWY 55", "CITY": "PRICE", "ZIP": "84501", "TYPE": "Supermarket", "GCSCORE": 100.0, "GCMETHOD": "Centerlines.StatewideRoads", "DAFID": "R45762", "POINT_X": 517968.44999685901, "POINT_Y": 4382901.0891656103 }, "geometry": { "type": "Point", "coordinates": [ -110.790728161325362, 39.595655646075819 ] } },
{ "type": "Feature", "properties": { "OBJECTID": 2898, "NAME": "SAMS CLUB", "NBR": "6685", "STREETADDR": "1313 S UNIVERSITY AVE", "CITY": "PROVO", "ZIP": "84601", "TYPE": "Supermarket", "GCSCORE": 100.0, "GCMETHOD": "AddressPoints.AddressGrid", "DAFID": "R46062", "POINT_X": 444051.442152831, "POINT_Y": 4451990.5950861797 }, "geometry": { "type": "Point", "coordinates": [ -111.657524764660124, 40.216469446651182 ] } },
{ "type": "Feature", "properties": { "OBJECTID": 2899, "NAME": "ASSOCIATED FRESH MARKETS", "NBR": "2378", "STREETADDR": "135 E MAIN ST", "CITY": "AMERICAN FORK", "ZIP": "84003", "TYPE": "Supermarket", "GCSCORE": 100.0, "GCMETHOD": "AddressPoints.AddressGrid", "DAFID": "R463", "POINT_X": 432508.01265261503, "POINT_Y": 4469999.3146424703 }, "geometry": { "type": "Point", "coordinates": [ -111.795074483131188, 40.377850506494617 ] } },
{ "type": "Feature", "properties": { "OBJECTID": 2900, "NAME": "ASSOCIATED FRESH MARKETS", "NBR": "2377", "STREETADDR": "910 N FAIRFIELD", "CITY": "LAYTON", "ZIP": "84040", "TYPE": "Supermarket", "GCSCORE": 90.919998168945298, "GCMETHOD": "AddressPoints.AddressGrid", "DAFID": "R46319", "POINT_X": 420271.44291246898, "POINT_Y": 4547322.7372055203 }, "geometry": { "type": "Point", "coordinates": [ -111.949051747744107, 41.073256075719421 ] } },
{ "type": "Feature", "properties": { "OBJECTID": 2902, "NAME": "WAL-MART", "NBR": "1768", "STREETADDR": "1355 SANDHILL RD", "CITY": "OREM", "ZIP": "84057", "TYPE": "Supermarket", "GCSCORE": 100.0, "GCMETHOD": "AddressPoints.AddressGrid", "DAFID": "R46434", "POINT_X": 439584.83152220998, "POINT_Y": 4458279.7564906897 }, "geometry": { "type": "Point", "coordinates": [ -111.710606089259755, 40.272816792072355 ] } },
{ "type": "Feature", "properties": { "OBJECTID": 2904, "NAME": "KENTS", "NBR": null, "STREETADDR": "580 S STATE ST", "CITY": "CLEARFIELD", "ZIP": "84015", "TYPE": "Supermarket", "GCSCORE": 100.0, "GCMETHOD": "AddressPoints.AddressGrid", "DAFID": "R46544", "POINT_X": 414511.07120392798, "POINT_Y": 4550865.9984967001 }, "geometry": { "type": "Point", "coordinates": [ -112.018102808352793, 41.104583959788485 ] } },
{ "type": "Feature", "properties": { "OBJECTID": 2905, "NAME": "SAMS CLUB", "NBR": "6684", "STREETADDR": "4949 S 900 W", "CITY": "RIVERDALE", "ZIP": "84405", "TYPE": "Grocery Store", "GCSCORE": 100.0, "GCMETHOD": "AddressPoints.AddressGrid", "DAFID": "R46547", "POINT_X": 416009.13232906698, "POINT_Y": 4558449.2342266701 }, "geometry": { "type": "Point", "coordinates": [ -112.00130304536313, 41.173039799588985 ] } },
{ "type": "Feature", "properties": { "OBJECTID": 2906, "NAME": "SMITHS", "NBR": "153", "STREETADDR": "10305 S 1300 E", "CITY": "SANDY", "ZIP": "84092", "TYPE": "Supermarket", "GCSCORE": 100.0, "GCMETHOD": "AddressPoints.AddressGrid", "DAFID": "R46760", "POINT_X": 427898.65163634898, "POINT_Y": 4490685.1799570303 }, "geometry": { "type": "Point", "coordinates": [ -111.851719977867617, 40.563804143024569 ] } },
{ "type": "Feature", "properties": { "OBJECTID": 2907, "NAME": "WAL-MART", "NBR": "1708", "STREETADDR": "4848 S 900 W ST", "CITY": "RIVERDALE", "ZIP": "84405", "TYPE": "Supermarket", "GCSCORE": 90.919998168945298, "GCMETHOD": "AddressPoints.AddressGrid", "DAFID": "R46972", "POINT_X": 416176.316023027, "POINT_Y": 4558751.0934807397 }, "geometry": { "type": "Point", "coordinates": [ -111.999351569282155, 41.175775835214203 ] } },
{ "type": "Feature", "properties": { "OBJECTID": 2909, "NAME": "WAL-MART", "NBR": "1699", "STREETADDR": "745 W HILLFIELD RD", "CITY": "LAYTON", "ZIP": "84041", "TYPE": "Supermarket", "GCSCORE": 98.779998779296903, "GCMETHOD": "AddressPoints.AddressGrid", "DAFID": "R46975", "POINT_X": 417691.96077688498, "POINT_Y": 4546853.4158152398 }, "geometry": { "type": "Point", "coordinates": [ -111.979689582622257, 41.068772002136853 ] } },
{ "type": "Feature", "properties": { "OBJECTID": 2912, "NAME": "WAL-MART SUPERCENTER", "NBR": "1827", "STREETADDR": "6545 LANDMARK DR", "CITY": "PARK CITY", "ZIP": "84060", "TYPE": "Grocery Store", "GCSCORE": 100.0, "GCMETHOD": "AddressPoints.AddressGrid", "DAFID": "R47598", "POINT_X": 453611.92421528703, "POINT_Y": 4508487.9148904299 }, "geometry": { "type": "Point", "coordinates": [ -111.549305416141081, 40.726018198588179 ] } },
{ "type": "Feature", "properties": { "OBJECTID": 2916, "NAME": "SNIDER BROS", "NBR": null, "STREETADDR": "6245 S HIGHLAND DR", "CITY": "SALT LAKE CITY", "ZIP": "84121", "TYPE": "Grocery Store", "GCSCORE": 100.0, "GCMETHOD": "AddressPoints.AddressGrid", "DAFID": "R47873", "POINT_X": 429554.130093179, "POINT_Y": 4498868.2360034902 }, "geometry": { "type": "Point", "coordinates": [ -111.833080983137094, 40.637658957042419 ] } },
{ "type": "Feature", "properties": { "OBJECTID": 2921, "NAME": "HONEY BEE PRODUCE CO INC", "NBR": null, "STREETADDR": "1212 E  PKWY", "CITY": "DRAPER", "ZIP": "84020", "TYPE": "Supermarket", "GCSCORE": 90.919998168945298, "GCMETHOD": "Centerlines.StatewideRoads", "DAFID": "R48343", "POINT_X": 427684.223902055, "POINT_Y": 4507817.7324635098 }, "geometry": { "type": "Point", "coordinates": [ -111.85622286751898, 40.718112036195862 ] } },
{ "type": "Feature", "properties": { "OBJECTID": 2927, "NAME": "WAL-MART", "NBR": "1888", "STREETADDR": "1550 N MAIN ST", "CITY": "LOGAN", "ZIP": "84321", "TYPE": "Supermarket", "GCSCORE": 100.0, "GCMETHOD": "AddressPoints.AddressGrid", "DAFID": "R48520", "POINT_X": 430974.610243626, "POINT_Y": 4623499.75729571 }, "geometry": { "type": "Point", "coordinates": [ -111.830354512195228, 41.760333909997783 ] } },
{ "type": "Feature", "properties": { "OBJECTID": 2928, "NAME": "SMITHS", "NBR": "138", "STREETADDR": "1634 W S JORDAN PKWY", "CITY": "SOUTH JORDAN", "ZIP": "84095", "TYPE": "Supermarket", "GCSCORE": 100.0, "GCMETHOD": "AddressPoints.AddressGrid", "DAFID": "R48538", "POINT_X": 420646.81092317501, "POINT_Y": 4490784.5768828001 }, "geometry": { "type": "Point", "coordinates": [ -111.937386575068885, 40.564036041725281 ] } },
{ "type": "Feature", "properties": { "OBJECTID": 2932, "NAME": "REAMS", "NBR": "6", "STREETADDR": "2600 W 4700 S", "CITY": "WEST VALLEY CITY", "ZIP": "84119", "TYPE": "Supermarket", "GCSCORE": 100.0, "GCMETHOD": "AddressPoints.AddressGrid", "DAFID": "R49048", "POINT_X": 419178.34124921699, "POINT_Y": 4502449.9292876096 }, "geometry": { "type": "Point", "coordinates": [ -111.956228397374517, 40.668970708163783 ] } },
{ "type": "Feature", "properties": { "OBJECTID": 2934, "NAME": "WHOLE FOODS MARKET", "NBR": null, "STREETADDR": "544 S 700 E", "CITY": "SALT LAKE CITY", "ZIP": "84102", "TYPE": "Supermarket", "GCSCORE": 100.0, "GCMETHOD": "AddressPoints.AddressGrid", "DAFID": "R49712", "POINT_X": 426420.20676842699, "POINT_Y": 4512239.5136415903 }, "geometry": { "type": "Point", "coordinates": [ -111.871707105757579, 40.757829725717279 ] } },
{ "type": "Feature", "properties": { "OBJECTID": 2935, "NAME": "MACEYS SANDY", "NBR": "45", "STREETADDR": "7850 S 1300 E", "CITY": "SANDY", "ZIP": "84094", "TYPE": "Supermarket", "GCSCORE": 100.0, "GCMETHOD": "AddressPoints.AddressGrid", "DAFID": "R49714", "POINT_X": 427682.07228546502, "POINT_Y": 4495688.9057071898 }, "geometry": { "type": "Point", "coordinates": [ -111.854851961908636, 40.608858242493945 ] } },
{ "type": "Feature", "properties": { "OBJECTID": 2938, "NAME": "REAMS", "NBR": "15", "STREETADDR": "8725 S HIGHLAND DR", "CITY": "SANDY", "ZIP": "84093", "TYPE": "Supermarket", "GCSCORE": 100.0, "GCMETHOD": "AddressPoints.AddressGrid", "DAFID": "R50008", "POINT_X": 429690.65033325698, "POINT_Y": 4493839.89595755 }, "geometry": { "type": "Point", "coordinates": [ -111.830905214889896, 40.592375836499883 ] } },
{ "type": "Feature", "properties": { "OBJECTID": 2940, "NAME": "SAMS CLUB", "NBR": "6686", "STREETADDR": "1905 S 300 W", "CITY": "SALT LAKE CITY", "ZIP": "84115", "TYPE": "Grocery Store", "GCSCORE": 100.0, "GCMETHOD": "AddressPoints.AddressGrid", "DAFID": "R50750", "POINT_X": 424149.99045102601, "POINT_Y": 4509027.3341196701 }, "geometry": { "type": "Point", "coordinates": [ -111.89820998856267, 40.728689606849997 ] } },
{ "type": "Feature", "properties": { "OBJECTID": 2941, "NAME": "SAMS CLUB", "NBR": "6682", "STREETADDR": "1055 W HILLFIELD RD", "CITY": "LAYTON", "ZIP": "84041", "TYPE": "Grocery Store", "GCSCORE": 98.779998779296903, "GCMETHOD": "AddressPoints.AddressGrid", "DAFID": "R51077", "POINT_X": 417292.361328503, "POINT_Y": 4547155.9294086201 }, "geometry": { "type": "Point", "coordinates": [ -111.984485857595573, 41.071456146147327 ] } },
{ "type": "Feature", "properties": { "OBJECTID": 2943, "NAME": "JUANITAS GROCERY", "NBR": null, "STREETADDR": "118 W MAIN ST", "CITY": "MORONI", "ZIP": "84646", "TYPE": "Grocery Store", "GCSCORE": 100.0, "GCMETHOD": "Centerlines.StatewideRoads", "DAFID": "R51546", "POINT_X": 449632.548555477, "POINT_Y": 4375212.6571704298 }, "geometry": { "type": "Point", "coordinates": [ -111.586021342644827, 39.525090576736964 ] } },
{ "type": "Feature", "properties": { "OBJECTID": 2954, "NAME": "CITY MARKET LLC", "NBR": "10", "STREETADDR": "425 S MAIN ST", "CITY": "MOAB", "ZIP": "84532", "TYPE": "Grocery Store", "GCSCORE": 100.0, "GCMETHOD": "AddressPoints.AddressGrid", "DAFID": "R5245", "POINT_X": 626373.99306213495, "POINT_Y": 4269710.0054254597 }, "geometry": { "type": "Point", "coordinates": [ -109.54941475316366, 38.566865346891461 ] } },
{ "type": "Feature", "properties": { "OBJECTID": 2957, "NAME": "RIDLEYS SUPERMARKET", "NBR": null, "STREETADDR": "780 E MAIN ST", "CITY": "HYRUM", "ZIP": "84319", "TYPE": "Supermarket", "GCSCORE": 100.0, "GCMETHOD": "AddressPoints.AddressGrid", "DAFID": "R52577", "POINT_X": 430553.45240326301, "POINT_Y": 4609349.9133323096 }, "geometry": { "type": "Point", "coordinates": [ -111.833772508438031, 41.63286111817591 ] } },
{ "type": "Feature", "properties": { "OBJECTID": 2958, "NAME": "ASSOCIATED FRESH MARKETS", "NBR": "2381", "STREETADDR": "3555 W 3500 S", "CITY": "WEST VALLEY CITY", "ZIP": "84119", "TYPE": "Supermarket", "GCSCORE": 100.0, "GCMETHOD": "AddressPoints.AddressGrid", "DAFID": "R52579", "POINT_X": 417541.52538486401, "POINT_Y": 4505375.7031009002 }, "geometry": { "type": "Point", "coordinates": [ -111.975975835628006, 40.695162411191824 ] } },
{ "type": "Feature", "properties": { "OBJECTID": 2961, "NAME": "DOVE FAMILY HOLDINGS LLC", "NBR": null, "STREETADDR": "530 N MAIN ST", "CITY": "MILFORD", "ZIP": "84751", "TYPE": "Grocery Store", "GCSCORE": 100.0, "GCMETHOD": "AddressPoints.AddressGrid", "DAFID": "R52762", "POINT_X": 324554.65369410597, "POINT_Y": 4252469.6264024796 }, "geometry": { "type": "Point", "coordinates": [ -113.009257616276358, 38.403253599197541 ] } },
{ "type": "Feature", "properties": { "OBJECTID": 2964, "NAME": "FOUNTAIN GREEN GENERAL STORE", "NBR": null, "STREETADDR": "84 S STATE ST", "CITY": "FOUNTAIN GREEN", "ZIP": "84632", "TYPE": "Grocery Store", "GCSCORE": 100.0, "GCMETHOD": "Centerlines.StatewideRoads", "DAFID": "R53782", "POINT_X": 445536.38157308399, "POINT_Y": 4386564.6168583101 }, "geometry": { "type": "Point", "coordinates": [ -111.6346092504604, 39.62712091610112 ] } },
{ "type": "Feature", "properties": { "OBJECTID": 2966, "NAME": "HARMONS", "NBR": null, "STREETADDR": "4874 W 6200 S", "CITY": "KEARNS", "ZIP": "84118", "TYPE": "Supermarket", "GCSCORE": 100.0, "GCMETHOD": "AddressPoints.AddressGrid", "DAFID": "R54325", "POINT_X": 414843.36419701198, "POINT_Y": 4499208.17919767 }, "geometry": { "type": "Point", "coordinates": [ -112.007070280798686, 40.639334791451226 ] } },
{ "type": "Feature", "properties": { "OBJECTID": 2968, "NAME": "SMITHS MARKET PLACE", "NBR": "94", "STREETADDR": "455 S 500 E", "CITY": "SALT LAKE CITY", "ZIP": "84102", "TYPE": "Supermarket", "GCSCORE": 100.0, "GCMETHOD": "AddressPoints.AddressGrid", "DAFID": "R54423", "POINT_X": 426088.86047902697, "POINT_Y": 4512403.3351452602 }, "geometry": { "type": "Point", "coordinates": [ -111.875651516660866, 40.759275640230179 ] } },
{ "type": "Feature", "properties": { "OBJECTID": 2969, "NAME": "SMITHS MARKET PLACE", "NBR": "495", "STREETADDR": "1820 W 9000 S", "CITY": "WEST JORDAN", "ZIP": "84088", "TYPE": "Grocery Store", "GCSCORE": 100.0, "GCMETHOD": "AddressPoints.AddressGrid", "DAFID": "R54427", "POINT_X": 420392.015372105, "POINT_Y": 4493651.1260273801 }, "geometry": { "type": "Point", "coordinates": [ -111.940757743045609, 40.589832570015773 ] } },
{ "type": "Feature", "properties": { "OBJECTID": 2971, "NAME": "ASSOCIATED FRESH MARKETS", "NBR": "2386", "STREETADDR": "652 N 800 E", "CITY": "SPANISH FORK", "ZIP": "84660", "TYPE": "Supermarket", "GCSCORE": 100.0, "GCMETHOD": "Centerlines.StatewideRoads", "DAFID": "R54675", "POINT_X": 445428.54214026401, "POINT_Y": 4441070.8901915299 }, "geometry": { "type": "Point", "coordinates": [ -111.640416442826847, 40.118184955030877 ] } },
{ "type": "Feature", "properties": { "OBJECTID": 2972, "NAME": "PARK CITY MARKET INC", "NBR": null, "STREETADDR": "1500 SNOW CRK DR", "CITY": "PARK CITY", "ZIP": "84060", "TYPE": "Supermarket", "GCSCORE": 100.0, "GCMETHOD": "AddressPoints.AddressGrid", "DAFID": "R54826", "POINT_X": 456968.87979029899, "POINT_Y": 4501404.9494079398 }, "geometry": { "type": "Point", "coordinates": [ -111.50906986896598, 40.662394671560413 ] } },
{ "type": "Feature", "properties": { "OBJECTID": 2973, "NAME": "ASSOCIATED FRESH MARKETS", "NBR": "2388", "STREETADDR": "5691 S HARRISON BLVD SOUTH", "CITY": "OGDEN", "ZIP": "84403", "TYPE": "Supermarket", "GCSCORE": 100.0, "GCMETHOD": "AddressPoints.AddressGrid", "DAFID": "R54829", "POINT_X": 421006.07104914001, "POINT_Y": 4556910.0541407904 }, "geometry": { "type": "Point", "coordinates": [ -111.941541425359063, 41.15967920414117 ] } },
{ "type": "Feature", "properties": { "OBJECTID": 2975, "NAME": "MACEYS", "NBR": null, "STREETADDR": "325 36TH ST", "CITY": "OGDEN", "ZIP": "84405", "TYPE": "Supermarket", "GCSCORE": 100.0, "GCMETHOD": "AddressPoints.AddressGrid", "DAFID": "R54859", "POINT_X": 418423.13622953201, "POINT_Y": 4561155.71387704 }, "geometry": { "type": "Point", "coordinates": [ -111.972889237223541, 41.197662689867599 ] } },
{ "type": "Feature", "properties": { "OBJECTID": 2976, "NAME": "COSTCO", "NBR": "113", "STREETADDR": "1818 S 300 W", "CITY": "SALT LAKE CITY", "ZIP": "84115", "TYPE": "Grocery Store", "GCSCORE": 100.0, "GCMETHOD": "AddressPoints.AddressGrid", "DAFID": "R54957", "POINT_X": 423870.19078500802, "POINT_Y": 4509275.1268479005 }, "geometry": { "type": "Point", "coordinates": [ -111.901553087224414, 40.730895779236818 ] } },
{ "type": "Feature", "properties": { "OBJECTID": 2977, "NAME": "FLAMING GORGE MARKET", "NBR": null, "STREETADDR": "75 HWY 43", "CITY": "MANILA", "ZIP": "84046", "TYPE": "Grocery Store", "GCSCORE": 92.430000305175795, "GCMETHOD": "AddressPoints.AddressGrid", "DAFID": "R54964", "POINT_X": 607610.388694764, "POINT_Y": 4538259.22584977 }, "geometry": { "type": "Point", "coordinates": [ -109.720712437367311, 40.988422141161394 ] } },
{ "type": "Feature", "properties": { "OBJECTID": 2978, "NAME": "RIDLEY`S FAMILY MARKETS", "NBR": "158", "STREETADDR": "1585 N STATE ST", "CITY": "OREM", "ZIP": "84057", "TYPE": "Supermarket", "GCSCORE": 100.0, "GCMETHOD": "Centerlines.StatewideRoads", "DAFID": "R54984", "POINT_X": 439861.00770127401, "POINT_Y": 4464199.4136963896 }, "geometry": { "type": "Point", "coordinates": [ -111.707914436783611, 40.326164825806593 ] } },
{ "type": "Feature", "properties": { "OBJECTID": 2980, "NAME": "SMITHS", "NBR": "72", "STREETADDR": "1725 W UINTAH WAY", "CITY": "PARK CITY", "ZIP": "84060", "TYPE": "Supermarket", "GCSCORE": 89.739997863769503, "GCMETHOD": "AddressPoints.AddressGrid", "DAFID": "R55039", "POINT_X": 454149.60318040301, "POINT_Y": 4508232.5276495498 }, "geometry": { "type": "Point", "coordinates": [ -111.542920095765169, 40.723747727483122 ] } },
{ "type": "Feature", "properties": { "OBJECTID": 2983, "NAME": "WAL-MART SUPER CENTER", "NBR": "2207", "STREETADDR": "7250 S UNION PARK AVE", "CITY": "MIDVALE", "ZIP": "84047", "TYPE": "Supermarket", "GCSCORE": null, "GCMETHOD": "Manually Placed", "DAFID": "R55331", "POINT_X": 427363.0, "POINT_Y": 4496915.0 }, "geometry": { "type": "Point", "coordinates": [ -111.858764657181979, 40.619874713461087 ] } },
{ "type": "Feature", "properties": { "OBJECTID": 2984, "NAME": "WAL-MART SUPER CENTER", "NBR": "2307", "STREETADDR": "11328 S JORDAN GATEWAY RD", "CITY": "SOUTH JORDAN", "ZIP": "84095", "TYPE": "Grocery Store", "GCSCORE": 100.0, "GCMETHOD": "AddressPoints.AddressGrid", "DAFID": "R55372", "POINT_X": 423672.19049392198, "POINT_Y": 4488713.1265727002 }, "geometry": { "type": "Point", "coordinates": [ -111.901402263567704, 40.54566128886011 ] } },
{ "type": "Feature", "properties": { "OBJECTID": 2985, "NAME": "SMITHS", "NBR": "42", "STREETADDR": "633 S MAIN ST", "CITY": "CEDAR CITY", "ZIP": "84720", "TYPE": "Supermarket", "GCSCORE": 100.0, "GCMETHOD": "AddressPoints.AddressGrid", "DAFID": "R55855", "POINT_X": 318113.11476281402, "POINT_Y": 4170782.0529994201 }, "geometry": { "type": "Point", "coordinates": [ -113.062242874969229, 37.666210623474825 ] } },
{ "type": "Feature", "properties": { "OBJECTID": 2986, "NAME": "TARGET", "NBR": "T1750", "STREETADDR": "200 N MARKET PLACE DR", "CITY": "CENTERVILLE", "ZIP": "84014", "TYPE": "Supermarket", "GCSCORE": 98.959999084472699, "GCMETHOD": "AddressPoints.AddressGrid", "DAFID": "R56311", "POINT_X": 425289.18126936402, "POINT_Y": 4530056.9294431498 }, "geometry": { "type": "Point", "coordinates": [ -111.887242484345947, 40.91821663508594 ] } },
{ "type": "Feature", "properties": { "OBJECTID": 2987, "NAME": "TARGET STORE T", "NBR": null, "STREETADDR": "7025 S PARK CTR", "CITY": "SALT LAKE CITY", "ZIP": "84121", "TYPE": "Supermarket", "GCSCORE": 90.919998168945298, "GCMETHOD": "AddressPoints.AddressGrid", "DAFID": "R56369", "POINT_X": 428102.90295617201, "POINT_Y": 4497248.2798179798 }, "geometry": { "type": "Point", "coordinates": [ -111.850056020201066, 40.622941569512115 ] } },
{ "type": "Feature", "properties": { "OBJECTID": 2988, "NAME": "TARGET", "NBR": "T1752", "STREETADDR": "10130 S STATE ST", "CITY": "SANDY", "ZIP": "84070", "TYPE": "Supermarket", "GCSCORE": 100.0, "GCMETHOD": "AddressPoints.AddressGrid", "DAFID": "R56422", "POINT_X": 424395.08228933398, "POINT_Y": 4491109.4493896496 }, "geometry": { "type": "Point", "coordinates": [ -111.893153066977902, 40.567313289819552 ] } },
{ "type": "Feature", "properties": { "OBJECTID": 2989, "NAME": "ASSOCIATED FRESH MARKETS", "NBR": "2389", "STREETADDR": "170 W 200 N", "CITY": "KAYSVILLE", "ZIP": "84037", "TYPE": "Supermarket", "GCSCORE": 100.0, "GCMETHOD": "AddressPoints.AddressGrid", "DAFID": "R56442", "POINT_X": 420918.66106266901, "POINT_Y": 4543453.6984701501 }, "geometry": { "type": "Point", "coordinates": [ -111.940851905540526, 41.038471090791617 ] } },
{ "type": "Feature", "properties": { "OBJECTID": 2991, "NAME": "DICKS MARKET", "NBR": null, "STREETADDR": "2280 S ORCHARD DR", "CITY": "BOUNTIFUL", "ZIP": "84010", "TYPE": "Grocery Store", "GCSCORE": 100.0, "GCMETHOD": "AddressPoints.AddressGrid", "DAFID": "R56899", "POINT_X": 425791.10128723999, "POINT_Y": 4524146.4982396299 }, "geometry": { "type": "Point", "coordinates": [ -111.880576324041698, 40.865025047262364 ] } },
{ "type": "Feature", "properties": { "OBJECTID": 2992, "NAME": "WINEGARS SUPERMARKETS INC", "NBR": null, "STREETADDR": "3440 W 4800 S", "CITY": "ROY", "ZIP": "84067", "TYPE": "Supermarket", "GCSCORE": 100.0, "GCMETHOD": "AddressPoints.AddressGrid", "DAFID": "R56903", "POINT_X": 410829.47283692501, "POINT_Y": 4558957.9273525197 }, "geometry": { "type": "Point", "coordinates": [ -112.06311682909498, 41.177067910904292 ] } },
{ "type": "Feature", "properties": { "OBJECTID": 2993, "NAME": "GOOD EARTH", "NBR": null, "STREETADDR": "500 S STATE ST", "CITY": "OREM", "ZIP": "84058", "TYPE": "Grocery Store", "GCSCORE": 100.0, "GCMETHOD": "Centerlines.StatewideRoads", "DAFID": "R56926", "POINT_X": 441255.47356610303, "POINT_Y": 4459930.18096512 }, "geometry": { "type": "Point", "coordinates": [ -111.691108796745866, 40.28780396731301 ] } },
{ "type": "Feature", "properties": { "OBJECTID": 2995, "NAME": "NEIGHBORS MARKET", "NBR": null, "STREETADDR": "15 S HWY 89", "CITY": "NORTH SALT LAKE", "ZIP": "84054", "TYPE": "Grocery Store", "GCSCORE": 100.0, "GCMETHOD": "Centerlines.StatewideRoads", "DAFID": "R5724", "POINT_X": 423260.07912045601, "POINT_Y": 4521555.6605540197 }, "geometry": { "type": "Point", "coordinates": [ -111.910286719323906, 40.841455297739785 ] } },
{ "type": "Feature", "properties": { "OBJECTID": 2996, "NAME": "TARGET STORE T", "NBR": null, "STREETADDR": "1135 RIVERDALE RD", "CITY": "RIVERDALE", "ZIP": "84405", "TYPE": "Supermarket", "GCSCORE": null, "GCMETHOD": "Manually Placed", "DAFID": "R57242", "POINT_X": 415600.0, "POINT_Y": 4558510.0 }, "geometry": { "type": "Point", "coordinates": [ -112.006188194352418, 41.173544583837263 ] } },
{ "type": "Feature", "properties": { "OBJECTID": 2997, "NAME": "DOLLAR S MART", "NBR": null, "STREETADDR": "162 N GRAYSON PKWY", "CITY": "BLANDING", "ZIP": "84511", "TYPE": "Grocery Store", "GCSCORE": 100.0, "GCMETHOD": "Centerlines.StatewideRoads", "DAFID": "R57252", "POINT_X": 634821.098065614, "POINT_Y": 4165594.3385592899 }, "geometry": { "type": "Point", "coordinates": [ -109.472145312914051, 37.627592756603185 ] } },
{ "type": "Feature", "properties": { "OBJECTID": 2998, "NAME": "TERRYS FOOD & DRUG", "NBR": null, "STREETADDR": "65 E Main Street", "CITY": "ORDERVILLE", "ZIP": "84758", "TYPE": "Supermarket", "GCSCORE": 92.430000305175795, "GCMETHOD": "Centerlines.StatewideRoads", "DAFID": "R57253", "POINT_X": 358458.69926341501, "POINT_Y": 4131226.13089759 }, "geometry": { "type": "Point", "coordinates": [ -112.597378476938403, 37.316916854250373 ] } },
{ "type": "Feature", "properties": { "OBJECTID": 2999, "NAME": "TARGET GROCERY T", "NBR": null, "STREETADDR": "175 W CTR ST", "CITY": "OREM", "ZIP": "84058", "TYPE": "Supermarket", "GCSCORE": 100.0, "GCMETHOD": "AddressPoints.AddressGrid", "DAFID": "R57416", "POINT_X": 440576.91433353402, "POINT_Y": 4460781.1982218502 }, "geometry": { "type": "Point", "coordinates": [ -111.699170228585032, 40.295422565752943 ] } },
{ "type": "Feature", "properties": { "OBJECTID": 3000, "NAME": "ALBERTSONS", "NBR": "301", "STREETADDR": "915 W RED CLIFFS DR", "CITY": "WASHINGTON", "ZIP": "84780", "TYPE": "Supermarket", "GCSCORE": 100.0, "GCMETHOD": "AddressPoints.AddressGrid", "DAFID": "R57961", "POINT_X": 275713.43099821801, "POINT_Y": 4111787.16181143 }, "geometry": { "type": "Point", "coordinates": [ -113.524686610396373, 37.125581699974227 ] } },
{ "type": "Feature", "properties": { "OBJECTID": 3005, "NAME": "TARGET T1755", "NBR": null, "STREETADDR": "815 W 2000 N", "CITY": "LAYTON", "ZIP": "84041", "TYPE": "Supermarket", "GCSCORE": 100.0, "GCMETHOD": "Centerlines.StatewideRoads", "DAFID": "R58690", "POINT_X": 417580.26296544902, "POINT_Y": 4549105.4797271704 }, "geometry": { "type": "Point", "coordinates": [ -111.981320560092243, 41.089044574148723 ] } },
{ "type": "Feature", "properties": { "OBJECTID": 3006, "NAME": "GRAND STAIRCASE COUNTRY STORE", "NBR": null, "STREETADDR": "105 N KODACHROME DR", "CITY": "CANNONVILLE", "ZIP": "84718", "TYPE": "Grocery Store", "GCSCORE": null, "GCMETHOD": "Manually Placed", "DAFID": "R58696", "POINT_X": 406867.0, "POINT_Y": 4158472.0 }, "geometry": { "type": "Point", "coordinates": [ -112.054608079461474, 37.56857692283122 ] } },
{ "type": "Feature", "properties": { "OBJECTID": 3007, "NAME": "SMITHS", "NBR": "73", "STREETADDR": "210 E 700 S", "CITY": "PLEASANT GROVE", "ZIP": "84062", "TYPE": "Supermarket", "GCSCORE": 100.0, "GCMETHOD": "AddressPoints.AddressGrid", "DAFID": "R58770", "POINT_X": 437389.71108233102, "POINT_Y": 4467300.8193239002 }, "geometry": { "type": "Point", "coordinates": [ -111.737306579534518, 40.35392228034479 ] } },
{ "type": "Feature", "properties": { "OBJECTID": 3009, "NAME": "CHEVRON CORNER MART", "NBR": null, "STREETADDR": "2983 WASHINGTON BLVD", "CITY": "OGDEN", "ZIP": "84403", "TYPE": "Grocery Store", "GCSCORE": 100.0, "GCMETHOD": "Centerlines.StatewideRoads", "DAFID": "R58802", "POINT_X": 418607.30607802398, "POINT_Y": 4562587.3097692505 }, "geometry": { "type": "Point", "coordinates": [ -111.970883701374873, 41.210575072747972 ] } },
{ "type": "Feature", "properties": { "OBJECTID": 3010, "NAME": "SMITHS", "NBR": "142", "STREETADDR": "951 W 1700 S", "CITY": "SYRACUSE", "ZIP": "84075", "TYPE": "Supermarket", "GCSCORE": 100.0, "GCMETHOD": "AddressPoints.AddressGrid", "DAFID": "R58856", "POINT_X": 412304.59031984, "POINT_Y": 4549060.5649607498 }, "geometry": { "type": "Point", "coordinates": [ -112.044118477669329, 41.08808794046989 ] } },
{ "type": "Feature", "properties": { "OBJECTID": 3011, "NAME": "SMITHS", "NBR": "158", "STREETADDR": "4080 W 9000 S", "CITY": "WEST JORDAN", "ZIP": "84088", "TYPE": "Supermarket", "GCSCORE": 100.0, "GCMETHOD": "AddressPoints.AddressGrid", "DAFID": "R58858", "POINT_X": 416414.55122068297, "POINT_Y": 4493596.7462539999 }, "geometry": { "type": "Point", "coordinates": [ -111.987747168883388, 40.588950312865094 ] } },
{ "type": "Feature", "properties": { "OBJECTID": 3013, "NAME": "SMITHS", "NBR": null, "STREETADDR": "212 E 12300 S", "CITY": "DRAPER", "ZIP": "84020", "TYPE": "Grocery Store", "GCSCORE": 100.0, "GCMETHOD": "AddressPoints.AddressGrid", "DAFID": "R59137", "POINT_X": 425048.92040426598, "POINT_Y": 4486445.2143649999 }, "geometry": { "type": "Point", "coordinates": [ -111.884876623370658, 40.525357903535422 ] } },
{ "type": "Feature", "properties": { "OBJECTID": 3015, "NAME": "MACEY`S", "NBR": "13", "STREETADDR": "760 E MAIN ST", "CITY": "LEHI", "ZIP": "84043", "TYPE": "Supermarket", "GCSCORE": 100.0, "GCMETHOD": "Centerlines.StatewideRoads", "DAFID": "R59339", "POINT_X": 428945.53949619702, "POINT_Y": 4471166.3468473302 }, "geometry": { "type": "Point", "coordinates": [ -111.837167354202961, 40.388067213504286 ] } },
{ "type": "Feature", "properties": { "OBJECTID": 3021, "NAME": "HARMONS ORCHARD", "NBR": "88", "STREETADDR": "870 E 800 N", "CITY": "OREM", "ZIP": "84097", "TYPE": "Supermarket", "GCSCORE": 100.0, "GCMETHOD": "AddressPoints.AddressGrid", "DAFID": "R60026", "POINT_X": 442632.44470741902, "POINT_Y": 4462464.17981291 }, "geometry": { "type": "Point", "coordinates": [ -111.675137615825506, 40.310727650173824 ] } },
{ "type": "Feature", "properties": { "OBJECTID": 3027, "NAME": "LEES MARKET PLACE", "NBR": null, "STREETADDR": "2645 N WASHINGTON BLVD", "CITY": "OGDEN", "ZIP": "84415", "TYPE": "Supermarket", "GCSCORE": 92.430000305175795, "GCMETHOD": "Centerlines.StatewideRoads", "DAFID": "R60595", "POINT_X": 418629.08085245499, "POINT_Y": 4563340.6207724297 }, "geometry": { "type": "Point", "coordinates": [ -111.970724301466362, 41.217362042404886 ] } },
{ "type": "Feature", "properties": { "OBJECTID": 3028, "NAME": "MACEYS PROVO", "NBR": "40", "STREETADDR": "1400 N STATE", "CITY": "PROVO", "ZIP": "84601", "TYPE": "Supermarket", "GCSCORE": 90.919998168945298, "GCMETHOD": "AddressPoints.AddressGrid", "DAFID": "R60694", "POINT_X": 443323.30172081798, "POINT_Y": 4456054.6199751804 }, "geometry": { "type": "Point", "coordinates": [ -111.666440361909466, 40.253032602962364 ] } },
{ "type": "Feature", "properties": { "OBJECTID": 3029, "NAME": "LUCKY`S", "NBR": null, "STREETADDR": "729 N REDWOOD", "CITY": "SALT LAKE CITY", "ZIP": "84116", "TYPE": "Supermarket", "GCSCORE": 90.919998168945298, "GCMETHOD": "AddressPoints.AddressGrid", "DAFID": "R60735", "POINT_X": 420631.07197442802, "POINT_Y": 4515371.15373981 }, "geometry": { "type": "Point", "coordinates": [ -111.940680656036847, 40.785499174300199 ] } },
{ "type": "Feature", "properties": { "OBJECTID": 3031, "NAME": "ASSOCIATED FRESH MARKETS", "NBR": "2391", "STREETADDR": "1860 E 9400 S", "CITY": "SANDY", "ZIP": "84093", "TYPE": "Supermarket", "GCSCORE": 100.0, "GCMETHOD": "AddressPoints.AddressGrid", "DAFID": "R60812", "POINT_X": 429087.35644957202, "POINT_Y": 4492387.2069986798 }, "geometry": { "type": "Point", "coordinates": [ -111.837870753643813, 40.579238606138247 ] } },
{ "type": "Feature", "properties": { "OBJECTID": 3032, "NAME": "WHOLE FOOD MARKET", "NBR": null, "STREETADDR": "1131 E WILMINGTON", "CITY": "SALT LAKE CITY", "ZIP": "84106", "TYPE": "Supermarket", "GCSCORE": 90.919998168945298, "GCMETHOD": "AddressPoints.AddressGrid", "DAFID": "R61296", "POINT_X": 427478.45442178298, "POINT_Y": 4508432.3238932202 }, "geometry": { "type": "Point", "coordinates": [ -111.858730083810386, 40.723629971813146 ] } },
{ "type": "Feature", "properties": { "OBJECTID": 3035, "NAME": "CHINA TOWN MARKET", "NBR": null, "STREETADDR": "1496 MAJOR ST", "CITY": "SALT LAKE CITY", "ZIP": "84115", "TYPE": "Grocery Store", "GCSCORE": 100.0, "GCMETHOD": "AddressPoints.AddressGrid", "DAFID": "R61521", "POINT_X": 424866.081294237, "POINT_Y": 4509937.8333488097 }, "geometry": { "type": "Point", "coordinates": [ -111.889840381949, 40.73695667743133 ] } },
{ "type": "Feature", "properties": { "OBJECTID": 3036, "NAME": "SMITHS", "NBR": "85", "STREETADDR": "980 E FT UNION BLVD", "CITY": "MIDVALE", "ZIP": "84047", "TYPE": "Supermarket", "GCSCORE": 100.0, "GCMETHOD": "AddressPoints.AddressGrid", "DAFID": "R61711", "POINT_X": 426947.96622803097, "POINT_Y": 4497111.9753706604 }, "geometry": { "type": "Point", "coordinates": [ -111.863693791744765, 40.621612435032027 ] } },
{ "type": "Feature", "properties": { "OBJECTID": 3037, "NAME": "LEE`S MARKETPLACE", "NBR": null, "STREETADDR": "555 E 1400 N", "CITY": "LOGAN", "ZIP": "84321", "TYPE": "Supermarket", "GCSCORE": 100.0, "GCMETHOD": "AddressPoints.AddressGrid", "DAFID": "R61721", "POINT_X": 431805.99010459002, "POINT_Y": 4623326.3991446299 }, "geometry": { "type": "Point", "coordinates": [ -111.820334433543934, 41.758844483424859 ] } },
{ "type": "Feature", "properties": { "OBJECTID": 3043, "NAME": "PIRATE O", "NBR": null, "STREETADDR": "11901 S 700 E", "CITY": "DRAPER", "ZIP": "84020", "TYPE": "Grocery Store", "GCSCORE": 100.0, "GCMETHOD": "AddressPoints.AddressGrid", "DAFID": "R62269", "POINT_X": 426259.16272630001, "POINT_Y": 4487392.9691685298 }, "geometry": { "type": "Point", "coordinates": [ -111.870700553244646, 40.534003778495993 ] } },
{ "type": "Feature", "properties": { "OBJECTID": 3047, "NAME": "COSTCO", "NBR": "484", "STREETADDR": "648 E 800 S", "CITY": "OREM", "ZIP": "84097", "TYPE": "Supermarket", "GCSCORE": 100.0, "GCMETHOD": "AddressPoints.AddressGrid", "DAFID": "R62403", "POINT_X": 442152.43113434798, "POINT_Y": 4459055.1833795104 }, "geometry": { "type": "Point", "coordinates": [ -111.680478106894441, 40.279983880471391 ] } },
{ "type": "Feature", "properties": { "OBJECTID": 3048, "NAME": "TARGET", "NBR": "0768", "STREETADDR": "6748 S REDWOOD RD", "CITY": "WEST JORDAN", "ZIP": "84084", "TYPE": "Grocery Store", "GCSCORE": 100.0, "GCMETHOD": "AddressPoints.AddressGrid", "DAFID": "R62455", "POINT_X": 420407.691671343, "POINT_Y": 4497965.4983523497 }, "geometry": { "type": "Point", "coordinates": [ -111.941117675193922, 40.628696399214917 ] } },
{ "type": "Feature", "properties": { "OBJECTID": 3052, "NAME": "COSTCO", "NBR": "487", "STREETADDR": "11100 S AUTO MALL DR", "CITY": "SANDY", "ZIP": "84070", "TYPE": "Supermarket", "GCSCORE": 100.0, "GCMETHOD": "Centerlines.StatewideRoads", "DAFID": "R63523", "POINT_X": 424369.20075482299, "POINT_Y": 4489123.3584684804 }, "geometry": { "type": "Point", "coordinates": [ -111.893220912255416, 40.549420538361112 ] } },
{ "type": "Feature", "properties": { "OBJECTID": 3054, "NAME": "MACEYS", "NBR": null, "STREETADDR": "972 N MAIN ST", "CITY": "TOOELE", "ZIP": "84074", "TYPE": "Grocery Store", "GCSCORE": 100.0, "GCMETHOD": "AddressPoints.AddressGrid", "DAFID": "R63667", "POINT_X": 390231.76234187698, "POINT_Y": 4489529.0946545703 }, "geometry": { "type": "Point", "coordinates": [ -112.296380895461184, 40.54925436169016 ] } },
{ "type": "Feature", "properties": { "OBJECTID": 3056, "NAME": "WAL-MART", "NBR": "1440", "STREETADDR": "99 W 1280 N", "CITY": "TOOELE", "ZIP": "84074", "TYPE": "Supermarket", "GCSCORE": 100.0, "GCMETHOD": "AddressPoints.AddressGrid", "DAFID": "R63801", "POINT_X": 389891.33187374502, "POINT_Y": 4490285.8171845702 }, "geometry": { "type": "Point", "coordinates": [ -112.300532318281526, 40.556024711098893 ] } },
{ "type": "Feature", "properties": { "OBJECTID": 3058, "NAME": "WAL-MART", "NBR": "2794", "STREETADDR": "777 N MAIN ST", "CITY": "EPHRAIM", "ZIP": "84647", "TYPE": "Supermarket", "GCSCORE": 92.430000305175795, "GCMETHOD": "AddressPoints.AddressGrid", "DAFID": "R63821", "POINT_X": 462153.40506093402, "POINT_Y": 4377570.7266440699 }, "geometry": { "type": "Point", "coordinates": [ -111.440481385900043, 39.54698043658194 ] } },
{ "type": "Feature", "properties": { "OBJECTID": 3060, "NAME": "SMITHS", "NBR": "147", "STREETADDR": "5620 W 4100 S", "CITY": "WEST VALLEY CITY", "ZIP": "84128", "TYPE": "Supermarket", "GCSCORE": 100.0, "GCMETHOD": "AddressPoints.AddressGrid", "DAFID": "R63925", "POINT_X": 413345.21257813799, "POINT_Y": 4504157.3650701502 }, "geometry": { "type": "Point", "coordinates": [ -112.025467476314333, 40.683757888267316 ] } },
{ "type": "Feature", "properties": { "OBJECTID": 3062, "NAME": "COSTCO", "NBR": "672", "STREETADDR": "835 N 3050 E", "CITY": "SAINT GEORGE", "ZIP": "84770", "TYPE": "Supermarket", "GCSCORE": 100.0, "GCMETHOD": "AddressPoints.AddressGrid", "DAFID": "R64065", "POINT_X": 275860.54596628901, "POINT_Y": 4111411.6336964299 }, "geometry": { "type": "Point", "coordinates": [ -113.52291975823475, 37.122235135811948 ] } },
{ "type": "Feature", "properties": { "OBJECTID": 3064, "NAME": "WAL-MART", "NBR": "1438", "STREETADDR": "1330 S PROVIDENCE CTR DR", "CITY": "CEDAR CITY", "ZIP": "84720", "TYPE": "Supermarket", "GCSCORE": 100.0, "GCMETHOD": "AddressPoints.AddressGrid", "DAFID": "R64300", "POINT_X": 315793.45406109298, "POINT_Y": 4169539.7062848099 }, "geometry": { "type": "Point", "coordinates": [ -113.08821378671621, 37.654557613823279 ] } },
{ "type": "Feature", "properties": { "OBJECTID": 3066, "NAME": "HARMONS (SO JORDAN)", "NBR": "87", "STREETADDR": "10507 S REDWOOD RD", "CITY": "SOUTH JORDAN", "ZIP": "84095", "TYPE": "Grocery Store", "GCSCORE": 100.0, "GCMETHOD": "AddressPoints.AddressGrid", "DAFID": "R64406", "POINT_X": 420714.28444382898, "POINT_Y": 4490391.3955285102 }, "geometry": { "type": "Point", "coordinates": [ -111.936540249645432, 40.560500837138335 ] } },
{ "type": "Feature", "properties": { "OBJECTID": 3067, "NAME": "WAL-MART SUPERCENTER", "NBR": "2921", "STREETADDR": "534 HARRISVILLERD", "CITY": "HARRISVILLE", "ZIP": "84404", "TYPE": "Supermarket", "GCSCORE": null, "GCMETHOD": "Manually Placed", "DAFID": "R64410", "POINT_X": 418495.0, "POINT_Y": 4569087.0 }, "geometry": { "type": "Point", "coordinates": [ -111.973091175568101, 41.269103619139393 ] } },
{ "type": "Feature", "properties": { "OBJECTID": 3069, "NAME": "ACAPULCO RESTAURANT", "NBR": null, "STREETADDR": "1430 W INDIANA AVE", "CITY": "SALT LAKE CITY", "ZIP": "84104", "TYPE": "Grocery Store", "GCSCORE": 100.0, "GCMETHOD": "AddressPoints.AddressGrid", "DAFID": "R64487", "POINT_X": 421329.370357226, "POINT_Y": 4511584.1649773996 }, "geometry": { "type": "Point", "coordinates": [ -111.931928772447392, 40.751455388673158 ] } },
{ "type": "Feature", "properties": { "OBJECTID": 3074, "NAME": "WAL-MART", "NBR": "3208", "STREETADDR": "660 S 1750 W", "CITY": "SPRINGVILLE", "ZIP": "84663", "TYPE": "Supermarket", "GCSCORE": 100.0, "GCMETHOD": "AddressPoints.AddressGrid", "DAFID": "R64850", "POINT_X": 445129.83510369802, "POINT_Y": 4445430.11954353 }, "geometry": { "type": "Point", "coordinates": [ -111.644292502543848, 40.157437854115535 ] } },
{ "type": "Feature", "properties": { "OBJECTID": 3075, "NAME": "WAL-MART", "NBR": "1439", "STREETADDR": "625 W TELEGRAPH", "CITY": "WASHINGTON", "ZIP": "84780", "TYPE": "Supermarket", "GCSCORE": 90.919998168945298, "GCMETHOD": "AddressPoints.AddressGrid", "DAFID": "R64856", "POINT_X": 276310.46689211001, "POINT_Y": 4111846.15676527 }, "geometry": { "type": "Point", "coordinates": [ -113.517989604380332, 37.126255880647577 ] } },
{ "type": "Feature", "properties": { "OBJECTID": 3076, "NAME": "WAL-MART", "NBR": "3220", "STREETADDR": "2610 PIONEER RD", "CITY": "SAINT GEORGE", "ZIP": "84770", "TYPE": "Supermarket", "GCSCORE": 100.0, "GCMETHOD": "AddressPoints.AddressGrid", "DAFID": "R65034", "POINT_X": 269960.21525575902, "POINT_Y": 4105048.0725200502 }, "geometry": { "type": "Point", "coordinates": [ -113.587322741922236, 37.063499233614309 ] } },
{ "type": "Feature", "properties": { "OBJECTID": 3079, "NAME": "HALAL MARKET", "NBR": null, "STREETADDR": "2407 S REDWOOD RD", "CITY": "WEST VALLEY CITY", "ZIP": "84119", "TYPE": "Grocery Store", "GCSCORE": 100.0, "GCMETHOD": "AddressPoints.AddressGrid", "DAFID": "R65285", "POINT_X": 420741.99640975602, "POINT_Y": 4507940.7480052998 }, "geometry": { "type": "Point", "coordinates": [ -111.938424527279182, 40.718581094478616 ] } },
{ "type": "Feature", "properties": { "OBJECTID": 3084, "NAME": "DANS", "NBR": null, "STREETADDR": "2029 E 7000 S", "CITY": "SALT LAKE CITY", "ZIP": "84121", "TYPE": "Supermarket", "GCSCORE": 100.0, "GCMETHOD": "Centerlines.StatewideRoads", "DAFID": "R6561", "POINT_X": 429516.39291582699, "POINT_Y": 4497383.3636964699 }, "geometry": { "type": "Point", "coordinates": [ -111.833360865051461, 40.624280207309667 ] } },
{ "type": "Feature", "properties": { "OBJECTID": 3085, "NAME": "WAL-MART SUPERCENTER", "NBR": "3232", "STREETADDR": "7671 S 3800 W", "CITY": "WEST JORDAN", "ZIP": "84084", "TYPE": "Supermarket", "GCSCORE": 100.0, "GCMETHOD": "Centerlines.StatewideRoads", "DAFID": "R66011", "POINT_X": 417065.38624514698, "POINT_Y": 4496077.8763289098 }, "geometry": { "type": "Point", "coordinates": [ -111.980383723261937, 40.611364744777227 ] } },
{ "type": "Feature", "properties": { "OBJECTID": 3086, "NAME": "SAMS CLUB", "NBR": "4730", "STREETADDR": "7571 S 3800 W", "CITY": "WEST JORDAN", "ZIP": "84084", "TYPE": "Grocery Store", "GCSCORE": 100.0, "GCMETHOD": "Centerlines.StatewideRoads", "DAFID": "R66012", "POINT_X": 417102.97571894602, "POINT_Y": 4496259.3071423601 }, "geometry": { "type": "Point", "coordinates": [ -111.979963314604717, 40.61300276061538 ] } },
{ "type": "Feature", "properties": { "OBJECTID": 3088, "NAME": "EUROPA MARKET", "NBR": null, "STREETADDR": "2850 S REDWOOD RD -A1", "CITY": "SALT LAKE CITY", "ZIP": "84119", "TYPE": "Grocery Store", "GCSCORE": 90.919998168945298, "GCMETHOD": "Centerlines.StatewideRoads", "DAFID": "R66127", "POINT_X": 420672.33328127698, "POINT_Y": 4506918.0763019696 }, "geometry": { "type": "Point", "coordinates": [ -111.939119766458134, 40.709362688583951 ] } },
{ "type": "Feature", "properties": { "OBJECTID": 3091, "NAME": "WAL-MART SUPERCENTER", "NBR": "3454", "STREETADDR": "1200 S COMMERCE WAY", "CITY": "PERRY", "ZIP": "84302", "TYPE": "Supermarket", "GCSCORE": 100.0, "GCMETHOD": "AddressPoints.AddressGrid", "DAFID": "R66342", "POINT_X": 413989.10334333201, "POINT_Y": 4592998.2175874002 }, "geometry": { "type": "Point", "coordinates": [ -112.030272636905025, 41.48398497945076 ] } },
{ "type": "Feature", "properties": { "OBJECTID": 3093, "NAME": "TARGET T", "NBR": null, "STREETADDR": "275 S RIVER RD", "CITY": "SAINT GEORGE", "ZIP": "84770", "TYPE": "Grocery Store", "GCSCORE": 100.0, "GCMETHOD": "AddressPoints.AddressGrid", "DAFID": "R66515", "POINT_X": 273040.78208243899, "POINT_Y": 4109386.5857889499 }, "geometry": { "type": "Point", "coordinates": [ -113.554017566117167, 37.103319491131501 ] } },
{ "type": "Feature", "properties": { "OBJECTID": 3094, "NAME": "MACEYS", "NBR": null, "STREETADDR": "931 W STATE ST", "CITY": "PLEASANT GROVE", "ZIP": "84062", "TYPE": "Supermarket", "GCSCORE": 100.0, "GCMETHOD": "AddressPoints.AddressGrid", "DAFID": "R66831", "POINT_X": 435962.73626616999, "POINT_Y": 4468540.7366297999 }, "geometry": { "type": "Point", "coordinates": [ -111.754233858693695, 40.364983690250419 ] } },
{ "type": "Feature", "properties": { "OBJECTID": 3095, "NAME": "KENTS", "NBR": null, "STREETADDR": "3535 W 5600 S", "CITY": "ROY", "ZIP": "84067", "TYPE": "Supermarket", "GCSCORE": 100.0, "GCMETHOD": "Centerlines.StatewideRoads", "DAFID": "R66901", "POINT_X": 410618.94939570199, "POINT_Y": 4557230.11902346 }, "geometry": { "type": "Point", "coordinates": [ -112.065374201582046, 41.161483346640537 ] } },
{ "type": "Feature", "properties": { "OBJECTID": 3097, "NAME": "HARMONS", "NBR": "14", "STREETADDR": "672 E 11400 S", "CITY": "DRAPER", "ZIP": "84020", "TYPE": "Supermarket", "GCSCORE": 100.0, "GCMETHOD": "AddressPoints.AddressGrid", "DAFID": "R67444", "POINT_X": 426101.07017212798, "POINT_Y": 4488319.3952949401 }, "geometry": { "type": "Point", "coordinates": [ -111.872675339917279, 40.542334865749318 ] } },
{ "type": "Feature", "properties": { "OBJECTID": 3100, "NAME": "ALBERTSONS", "NBR": "1329", "STREETADDR": "745 N DIXIE DOWN DR", "CITY": "SAINT GEORGE", "ZIP": "84770", "TYPE": "Supermarket", "GCSCORE": 90.919998168945298, "GCMETHOD": "AddressPoints.AddressGrid", "DAFID": "R67591", "POINT_X": 266809.64108385902, "POINT_Y": 4111521.9246756099 }, "geometry": { "type": "Point", "coordinates": [ -113.624735654476225, 37.121017113244292 ] } },
{ "type": "Feature", "properties": { "OBJECTID": 3103, "NAME": "WAL-MART SUPER CTR", "NBR": "3568", "STREETADDR": "3180 S 5600 W", "CITY": "WEST VALLEY CITY", "ZIP": "84120", "TYPE": "Supermarket", "GCSCORE": 100.0, "GCMETHOD": "AddressPoints.AddressGrid", "DAFID": "R67807", "POINT_X": 413264.29029632598, "POINT_Y": 4506192.5273927199 }, "geometry": { "type": "Point", "coordinates": [ -112.026706362477995, 40.702080659810015 ] } },
{ "type": "Feature", "properties": { "OBJECTID": 3104, "NAME": "SAMS CLUB", "NBR": "4786", "STREETADDR": "145 W CACHE VALLEY BLVD", "CITY": "LOGAN", "ZIP": "84321", "TYPE": "Grocery Store", "GCSCORE": 100.0, "GCMETHOD": "AddressPoints.AddressGrid", "DAFID": "R67813", "POINT_X": 430310.93615585897, "POINT_Y": 4622914.6944190003 }, "geometry": { "type": "Point", "coordinates": [ -111.838268844312964, 41.755006846973153 ] } },
{ "type": "Feature", "properties": { "OBJECTID": 3108, "NAME": "ANAYAS MARKET", "NBR": null, "STREETADDR": "1490 MUNCHKIN", "CITY": "PARK CITY", "ZIP": "84060", "TYPE": "Grocery Store", "GCSCORE": 90.919998168945298, "GCMETHOD": "AddressPoints.AddressGrid", "DAFID": "R67924", "POINT_X": 457597.84605035599, "POINT_Y": 4501275.5085623199 }, "geometry": { "type": "Point", "coordinates": [ -111.50162062050272, 40.661261182365479 ] } },
{ "type": "Feature", "properties": { "OBJECTID": 3113, "NAME": "COSTCO", "NBR": "764", "STREETADDR": "5201 S INTERMTN DR", "CITY": "MURRAY", "ZIP": "84107", "TYPE": "Supermarket", "GCSCORE": 90.919998168945298, "GCMETHOD": "Centerlines.StatewideRoads", "DAFID": "R68186", "POINT_X": 414251.42880207399, "POINT_Y": 4508769.9983239202 }, "geometry": { "type": "Point", "coordinates": [ -112.015375915497231, 40.725400003696528 ] } },
{ "type": "Feature", "properties": { "OBJECTID": 3114, "NAME": "WAL-MART NEIGHBORHOOD MK", "NBR": "5109", "STREETADDR": "4570 S 4000 W", "CITY": "WEST VALLEY CITY", "ZIP": "84120", "TYPE": "Grocery Store", "GCSCORE": 100.0, "GCMETHOD": "AddressPoints.AddressGrid", "DAFID": "R68279", "POINT_X": 416405.93343273603, "POINT_Y": 4502664.5247373898 }, "geometry": { "type": "Point", "coordinates": [ -111.989053610843314, 40.670627323267041 ] } },
{ "type": "Feature", "properties": { "OBJECTID": 3122, "NAME": "WAL-MART STORE INC", "NBR": "5206", "STREETADDR": "1710 E SKYLINE DR", "CITY": "SOUTH OGDEN", "ZIP": "84405", "TYPE": "Grocery Store", "GCSCORE": 100.0, "GCMETHOD": "AddressPoints.AddressGrid", "DAFID": "R71047", "POINT_X": 421260.30275463301, "POINT_Y": 4556008.8966494696 }, "geometry": { "type": "Point", "coordinates": [ -111.938395832694965, 41.151587399279933 ] } },
{ "type": "Feature", "properties": { "OBJECTID": 3125, "NAME": "TARGET STORE T", "NBR": null, "STREETADDR": "608 W MAIN ST", "CITY": "AMERICAN FORK", "ZIP": "84003", "TYPE": "Grocery Store", "GCSCORE": 100.0, "GCMETHOD": "AddressPoints.AddressGrid", "DAFID": "R71140", "POINT_X": 430745.61236794502, "POINT_Y": 4470116.5875613196 }, "geometry": { "type": "Point", "coordinates": [ -111.815846786138422, 40.378762306249939 ] } },
{ "type": "Feature", "properties": { "OBJECTID": 3126, "NAME": "WAL-MART MARKET", "NBR": "5110", "STREETADDR": "1360 E  PKWY", "CITY": "DRAPER", "ZIP": "84020", "TYPE": "Supermarket", "GCSCORE": 90.919998168945298, "GCMETHOD": "Centerlines.StatewideRoads", "DAFID": "R71141", "POINT_X": 428052.76855335198, "POINT_Y": 4507812.9574663704 }, "geometry": { "type": "Point", "coordinates": [ -111.851859201771134, 40.718101311969136 ] } },
{ "type": "Feature", "properties": { "OBJECTID": 3136, "NAME": "SMITHS FOOD & DRUG", "NBR": "108", "STREETADDR": "5560 W 13400 S", "CITY": "HERRIMAN", "ZIP": "84065", "TYPE": "Grocery Store", "GCSCORE": 100.0, "GCMETHOD": "AddressPoints.AddressGrid", "DAFID": "R71658", "POINT_X": 413282.07579568302, "POINT_Y": 4484761.7037336398 }, "geometry": { "type": "Point", "coordinates": [ -112.023546139244758, 40.509046027071236 ] } },
{ "type": "Feature", "properties": { "OBJECTID": 3137, "NAME": "COSTCO WHOLESALE", "NBR": "770", "STREETADDR": "3656 WALL AVE SOUTH", "CITY": "OGDEN", "ZIP": "84403", "TYPE": "Supermarket", "GCSCORE": 92.430000305175795, "GCMETHOD": "AddressPoints.AddressGrid", "DAFID": "R71705", "POINT_X": 418017.94009172398, "POINT_Y": 4561006.9352164697 }, "geometry": { "type": "Point", "coordinates": [ -111.977700987480176, 41.196281777990045 ] } },
{ "type": "Feature", "properties": { "OBJECTID": 3139, "NAME": "CHEVRON SUNMART", "NBR": "870", "STREETADDR": "8980 S REDWOOD RD", "CITY": "WEST JORDAN", "ZIP": "84088", "TYPE": "Grocery Store", "GCSCORE": 100.0, "GCMETHOD": "AddressPoints.AddressGrid", "DAFID": "R71762", "POINT_X": 420462.66313452402, "POINT_Y": 4493458.6180098802 }, "geometry": { "type": "Point", "coordinates": [ -111.939898697116462, 40.588105317904997 ] } },
{ "type": "Feature", "properties": { "OBJECTID": 3140, "NAME": "ARMANDOS MERCADO", "NBR": null, "STREETADDR": "72 N MAIN ST", "CITY": "HEBER CITY", "ZIP": "84032", "TYPE": "Grocery Store", "GCSCORE": 100.0, "GCMETHOD": "AddressPoints.AddressGrid", "DAFID": "R71815", "POINT_X": 464991.963797334, "POINT_Y": 4484288.6164117903 }, "geometry": { "type": "Point", "coordinates": [ -111.413207712300405, 40.508579165960697 ] } },
{ "type": "Feature", "properties": { "OBJECTID": 3143, "NAME": "WAL-MART SUPERCENTER", "NBR": "5234", "STREETADDR": "1632 N 2000 W", "CITY": "CLINTON", "ZIP": "84015", "TYPE": "Supermarket", "GCSCORE": 100.0, "GCMETHOD": "AddressPoints.AddressGrid", "DAFID": "R71883", "POINT_X": 410897.49628104299, "POINT_Y": 4554561.9784064302 }, "geometry": { "type": "Point", "coordinates": [ -112.061666875158167, 41.137483502166766 ] } },
{ "type": "Feature", "properties": { "OBJECTID": 3144, "NAME": "WAL-MART SUPERCENTER", "NBR": "5168", "STREETADDR": "10 E 1300 S", "CITY": "RICHFIELD", "ZIP": "84701", "TYPE": "Grocery Store", "GCSCORE": 100.0, "GCMETHOD": "AddressPoints.AddressGrid", "DAFID": "R71884", "POINT_X": 405734.56420767098, "POINT_Y": 4289406.5236239098 }, "geometry": { "type": "Point", "coordinates": [ -112.084773348791657, 38.748321350961952 ] } },
{ "type": "Feature", "properties": { "OBJECTID": 3147, "NAME": "WAL-MART SUPER CENTER", "NBR": "5167", "STREETADDR": "1052 S TURF FARM RD", "CITY": "PAYSON", "ZIP": "84651", "TYPE": "Supermarket", "GCSCORE": 100.0, "GCMETHOD": "AddressPoints.AddressGrid", "DAFID": "R72182", "POINT_X": 435428.54479036003, "POINT_Y": 4431151.67702235 }, "geometry": { "type": "Point", "coordinates": [ -111.75677096927005, 40.028115582366226 ] } },
{ "type": "Feature", "properties": { "OBJECTID": 3148, "NAME": "HONEYS MARKET PLACE", "NBR": null, "STREETADDR": "260 E 300 S", "CITY": "KANAB", "ZIP": "84741", "TYPE": "Grocery Store", "GCSCORE": 100.0, "GCMETHOD": "AddressPoints.AddressGrid", "DAFID": "R7233", "POINT_X": 364585.81014035101, "POINT_Y": 4100662.3702491298 }, "geometry": { "type": "Point", "coordinates": [ -112.522714435993464, 37.04242124515801 ] } },
{ "type": "Feature", "properties": { "OBJECTID": 3150, "NAME": "WAL-MART NH MARKET- GROC", "NBR": "5205", "STREETADDR": "1356 E HWY 193", "CITY": "LAYTON", "ZIP": "84041", "TYPE": "Supermarket", "GCSCORE": 100.0, "GCMETHOD": "Centerlines.StatewideRoads", "DAFID": "R72335", "POINT_X": 421051.285924959, "POINT_Y": 4550412.22602796 }, "geometry": { "type": "Point", "coordinates": [ -111.940166677839002, 41.101158840942666 ] } },
{ "type": "Feature", "properties": { "OBJECTID": 3151, "NAME": "JUBILEE FOODS", "NBR": null, "STREETADDR": "377 W MAIN ST", "CITY": "DELTA", "ZIP": "84624", "TYPE": "Supermarket", "GCSCORE": 100.0, "GCMETHOD": "AddressPoints.AddressGrid", "DAFID": "R7239", "POINT_X": 363586.22331012099, "POINT_Y": 4357016.7524670102 }, "geometry": { "type": "Point", "coordinates": [ -112.583200037581747, 39.351839627113847 ] } },
{ "type": "Feature", "properties": { "OBJECTID": 3153, "NAME": "3 AMIGOS MARKET", "NBR": null, "STREETADDR": "325 N BLUFF ST", "CITY": "SAINT GEORGE", "ZIP": "84770", "TYPE": "Grocery Store", "GCSCORE": 100.0, "GCMETHOD": "Centerlines.StatewideRoads", "DAFID": "R72778", "POINT_X": 269369.09460409498, "POINT_Y": 4110637.66103512 }, "geometry": { "type": "Point", "coordinates": [ -113.595682144408329, 37.113688491367611 ] } },
{ "type": "Feature", "properties": { "OBJECTID": 3158, "NAME": "GEORGES INTL GROC & DELI INC", "NBR": null, "STREETADDR": "2715 S STATE ST", "CITY": "SALT LAKE CITY", "ZIP": "84115", "TYPE": "Grocery Store", "GCSCORE": 100.0, "GCMETHOD": "AddressPoints.AddressGrid", "DAFID": "R72991", "POINT_X": 424995.160164917, "POINT_Y": 4507194.6967749102 }, "geometry": { "type": "Point", "coordinates": [ -111.887983281652666, 40.712259401399322 ] } },
{ "type": "Feature", "properties": { "OBJECTID": 3159, "NAME": "WAL-MART SUPERCENTER", "NBR": "3589", "STREETADDR": "350 W HOPE AVE", "CITY": "SALT LAKE CITY", "ZIP": "84115", "TYPE": "Grocery Store", "GCSCORE": 100.0, "GCMETHOD": "AddressPoints.AddressGrid", "DAFID": "R73030", "POINT_X": 423891.03218816902, "POINT_Y": 4510322.6266300203 }, "geometry": { "type": "Point", "coordinates": [ -111.901433682820127, 40.74033310548247 ] } },
{ "type": "Feature", "properties": { "OBJECTID": 3160, "NAME": "WAL-MART SUPERCENTER", "NBR": "5270", "STREETADDR": "585 N STATE ST", "CITY": "LINDON", "ZIP": "84042", "TYPE": "Grocery Store", "GCSCORE": 100.0, "GCMETHOD": "AddressPoints.AddressGrid", "DAFID": "R73031", "POINT_X": 437849.88564437599, "POINT_Y": 4466690.4390847003 }, "geometry": { "type": "Point", "coordinates": [ -111.731828504611045, 40.348458070364181 ] } },
{ "type": "Feature", "properties": { "OBJECTID": 3161, "NAME": "WAL-MART SUPERCENTER", "NBR": "5350", "STREETADDR": "4627 S 900 E", "CITY": "SALT LAKE CITY", "ZIP": "84117", "TYPE": "Grocery Store", "GCSCORE": 100.0, "GCMETHOD": "AddressPoints.AddressGrid", "DAFID": "R73032", "POINT_X": 426977.3836528, "POINT_Y": 4502462.7793979105 }, "geometry": { "type": "Point", "coordinates": [ -111.863967503808482, 40.669813861709891 ] } },
{ "type": "Feature", "properties": { "OBJECTID": 3162, "NAME": "WAL-MART SUPERCENTER", "NBR": "5233", "STREETADDR": "5675 W 6200 S", "CITY": "WEST VALLEY CITY", "ZIP": "84118", "TYPE": "Supermarket", "GCSCORE": 100.0, "GCMETHOD": "AddressPoints.AddressGrid", "DAFID": "R73046", "POINT_X": 413187.09217974101, "POINT_Y": 4498827.3885239502 }, "geometry": { "type": "Point", "coordinates": [ -112.026601961219455, 40.635732375681883 ] } },
{ "type": "Feature", "properties": { "OBJECTID": 3165, "NAME": "WAL-MART", "NBR": "2511", "STREETADDR": "949 W GRASSLAND DR", "CITY": "AMERICAN FORK", "ZIP": "84003", "TYPE": "Supermarket", "GCSCORE": 100.0, "GCMETHOD": "Centerlines.StatewideRoads", "DAFID": "R73181", "POINT_X": 430049.349362523, "POINT_Y": 4470998.98553898 }, "geometry": { "type": "Point", "coordinates": [ -111.824145137659912, 40.386653017121425 ] } },
{ "type": "Feature", "properties": { "OBJECTID": 3167, "NAME": "FOODTOWN DUANES", "NBR": null, "STREETADDR": "375 S MAIN ST", "CITY": "FILLMORE", "ZIP": "84631", "TYPE": "Grocery Store", "GCSCORE": 100.0, "GCMETHOD": "Centerlines.StatewideRoads", "DAFID": "R7331", "POINT_X": 375164.89642699203, "POINT_Y": 4294870.3061649501 }, "geometry": { "type": "Point", "coordinates": [ -112.437455971381354, 38.793750674678378 ] } },
{ "type": "Feature", "properties": { "OBJECTID": 3171, "NAME": "VIENTIANE MARKET", "NBR": null, "STREETADDR": "4090 W 5415 S", "CITY": "KEARNS", "ZIP": "84118", "TYPE": "Grocery Store", "GCSCORE": 100.0, "GCMETHOD": "AddressPoints.AddressGrid", "DAFID": "R73484", "POINT_X": 416374.44161312998, "POINT_Y": 4500798.4186329804 }, "geometry": { "type": "Point", "coordinates": [ -111.989177754610097, 40.653815306127697 ] } },
{ "type": "Feature", "properties": { "OBJECTID": 3174, "NAME": "CAPUTOS MARKET", "NBR": null, "STREETADDR": "314 W 300 S", "CITY": "SALT LAKE CITY", "ZIP": "84101", "TYPE": "Grocery Store", "GCSCORE": 100.0, "GCMETHOD": "AddressPoints.AddressGrid", "DAFID": "R73592", "POINT_X": 424011.284439207, "POINT_Y": 4512841.4361971496 }, "geometry": { "type": "Point", "coordinates": [ -111.90031562071546, 40.763032445780226 ] } },
{ "type": "Feature", "properties": { "OBJECTID": 3185, "NAME": "EL BAZAR", "NBR": null, "STREETADDR": "3601 S 2700 W - E106", "CITY": "WEST VALLEY CITY", "ZIP": "84119", "TYPE": "Grocery Store", "GCSCORE": 90.919998168945298, "GCMETHOD": "Centerlines.StatewideRoads", "DAFID": "R74065", "POINT_X": 417473.41960670101, "POINT_Y": 4508754.2700162204 }, "geometry": { "type": "Point", "coordinates": [ -111.977226715580244, 40.725587662015499 ] } },
{ "type": "Feature", "properties": { "OBJECTID": 3187, "NAME": "SUPER GROCERY", "NBR": null, "STREETADDR": "511 - 31ST ST", "CITY": "OGDEN", "ZIP": "84401", "TYPE": "Grocery Store", "GCSCORE": 100.0, "GCMETHOD": "AddressPoints.AddressGrid", "DAFID": "R74076", "POINT_X": 418891.43434451299, "POINT_Y": 4562293.2061975896 }, "geometry": { "type": "Point", "coordinates": [ -111.967455965764941, 41.207954710326874 ] } },
{ "type": "Feature", "properties": { "OBJECTID": 3193, "NAME": "LA PLACITA MARKET", "NBR": null, "STREETADDR": "4703 W 5415 S", "CITY": "KEARNS", "ZIP": "84118", "TYPE": "Grocery Store", "GCSCORE": 100.0, "GCMETHOD": "AddressPoints.AddressGrid", "DAFID": "R74364", "POINT_X": 415196.55428170902, "POINT_Y": 4500658.74503431 }, "geometry": { "type": "Point", "coordinates": [ -112.003089684456754, 40.652437001928888 ] } },
{ "type": "Feature", "properties": { "OBJECTID": 3195, "NAME": "ASSOCIATED FRESH MARKETS", "NBR": "2307", "STREETADDR": "3151 W KILBY RD", "CITY": "PARK CITY", "ZIP": "84098", "TYPE": "Supermarket", "GCSCORE": 100.0, "GCMETHOD": "AddressPoints.AddressGrid", "DAFID": "R74538", "POINT_X": 451830.53416848503, "POINT_Y": 4511203.7084343899 }, "geometry": { "type": "Point", "coordinates": [ -111.570607699691607, 40.750380286408301 ] } },
{ "type": "Feature", "properties": { "OBJECTID": 3198, "NAME": "LA AUTENTICA MARKET", "NBR": null, "STREETADDR": "8120 W 3500 S", "CITY": "MAGNA", "ZIP": "84044", "TYPE": "Grocery Store", "GCSCORE": 100.0, "GCMETHOD": "AddressPoints.AddressGrid", "DAFID": "R74662", "POINT_X": 408349.123106958, "POINT_Y": 4505660.7165982304 }, "geometry": { "type": "Point", "coordinates": [ -112.084800569924667, 40.696758444680491 ] } },
{ "type": "Feature", "properties": { "OBJECTID": 3206, "NAME": "EL POTRERO MARKET", "NBR": null, "STREETADDR": "7679 S MAIN ST", "CITY": "MIDVALE", "ZIP": "84047", "TYPE": "Grocery Store", "GCSCORE": 100.0, "GCMETHOD": "AddressPoints.AddressGrid", "DAFID": "R74983", "POINT_X": 423008.63474411599, "POINT_Y": 4496036.0953611899 }, "geometry": { "type": "Point", "coordinates": [ -111.910131382816857, 40.611563473598217 ] } },
{ "type": "Feature", "properties": { "OBJECTID": 3210, "NAME": "WHOLE FOODS MARKET", "NBR": null, "STREETADDR": "6930 S HIGHLAND DR", "CITY": "SALT LAKE CITY", "ZIP": "84121", "TYPE": "Supermarket", "GCSCORE": 100.0, "GCMETHOD": "AddressPoints.AddressGrid", "DAFID": "R75181", "POINT_X": 429304.85465991398, "POINT_Y": 4497471.7297316296 }, "geometry": { "type": "Point", "coordinates": [ -111.835871648193361, 40.625058118764223 ] } },
{ "type": "Feature", "properties": { "OBJECTID": 3216, "NAME": "LOS FELIZ", "NBR": null, "STREETADDR": "3874 W 3500 S STE A", "CITY": "WEST VALLEY CITY", "ZIP": "84120", "TYPE": "Grocery Store", "GCSCORE": 100.0, "GCMETHOD": "AddressPoints.AddressGrid", "DAFID": "R75283", "POINT_X": 416915.322664237, "POINT_Y": 4505591.1965269698 }, "geometry": { "type": "Point", "coordinates": [ -111.983415045780845, 40.697040544595339 ] } },
{ "type": "Feature", "properties": { "OBJECTID": 3217, "NAME": "LA TIENDITA", "NBR": null, "STREETADDR": "1255 W 500 N", "CITY": "SALT LAKE CITY", "ZIP": "84116", "TYPE": "Supermarket", "GCSCORE": 100.0, "GCMETHOD": "AddressPoints.AddressGrid", "DAFID": "R75398", "POINT_X": 421754.85101367498, "POINT_Y": 4514748.24359891 }, "geometry": { "type": "Point", "coordinates": [ -111.927285293001972, 40.779996188337861 ] } },
{ "type": "Feature", "properties": { "OBJECTID": 3219, "NAME": "JALISCO MARKET LLC", "NBR": null, "STREETADDR": "399 E STATE ST", "CITY": "AMERICAN FORK", "ZIP": "84003", "TYPE": "Grocery Store", "GCSCORE": 100.0, "GCMETHOD": "Centerlines.StatewideRoads", "DAFID": "R75526", "POINT_X": 433102.37867026002, "POINT_Y": 4469639.0082285302 }, "geometry": { "type": "Point", "coordinates": [ -111.788035507530935, 40.374652672340652 ] } },
{ "type": "Feature", "properties": { "OBJECTID": 3222, "NAME": "M FLORES", "NBR": null, "STREETADDR": "556 W 600 S", "CITY": "SALT LAKE CITY", "ZIP": "84101", "TYPE": "Grocery Store", "GCSCORE": 100.0, "GCMETHOD": "AddressPoints.AddressGrid", "DAFID": "R75725", "POINT_X": 423433.78126985399, "POINT_Y": 4512152.48651323 }, "geometry": { "type": "Point", "coordinates": [ -111.907072680261066, 40.756773155302909 ] } },
{ "type": "Feature", "properties": { "OBJECTID": 3241, "NAME": "REAL FOODS MARKET", "NBR": null, "STREETADDR": "420 W 800 N", "CITY": "OREM", "ZIP": "84057", "TYPE": "Grocery Store", "GCSCORE": 100.0, "GCMETHOD": "AddressPoints.AddressGrid", "DAFID": "R76595", "POINT_X": 440002.83600397903, "POINT_Y": 4462774.0442819502 }, "geometry": { "type": "Point", "coordinates": [ -111.706111245991281, 40.313334411290718 ] } },
{ "type": "Feature", "properties": { "OBJECTID": 3246, "NAME": "LDS BRIGHAM CITY BISHOPS", "NBR": null, "STREETADDR": "571 W FOREST ST", "CITY": "BRIGHAM CITY", "ZIP": "84302", "TYPE": "Grocery Store", "GCSCORE": 100.0, "GCMETHOD": "AddressPoints.AddressGrid", "DAFID": "R76889", "POINT_X": 414479.07122719701, "POINT_Y": 4595903.1291143596 }, "geometry": { "type": "Point", "coordinates": [ -112.024816938676352, 41.510199041598447 ] } },
{ "type": "Feature", "properties": { "OBJECTID": 3251, "NAME": "GOULDINGS STORE", "NBR": null, "STREETADDR": "1000 MAIN ST", "CITY": "MONUMENT VALLEY", "ZIP": "84536", "TYPE": "Grocery Store", "GCSCORE": 100.0, "GCMETHOD": "Centerlines.StatewideRoads", "DAFID": "R77000", "POINT_X": 634237.61757665803, "POINT_Y": 4163726.1707653501 }, "geometry": { "type": "Point", "coordinates": [ -109.479098443627379, 37.610845443455148 ] } },
{ "type": "Feature", "properties": { "OBJECTID": 3253, "NAME": "COSTCO WHOLESALE", "NBR": "735", "STREETADDR": "573 W 100 N", "CITY": "WEST BOUNTIFUL", "ZIP": "84087", "TYPE": "Supermarket", "GCSCORE": 100.0, "GCMETHOD": "AddressPoints.AddressGrid", "DAFID": "R77071", "POINT_X": 424626.45388528099, "POINT_Y": 4526912.6967937201 }, "geometry": { "type": "Point", "coordinates": [ -111.894730061544706, 40.889834783273578 ] } },
{ "type": "Feature", "properties": { "OBJECTID": 3261, "NAME": "THEVILLAGE MARKET", "NBR": null, "STREETADDR": "702 S MAIN ST", "CITY": "MOAB", "ZIP": "84532", "TYPE": "Grocery Store", "GCSCORE": 100.0, "GCMETHOD": "AddressPoints.AddressGrid", "DAFID": "R77822", "POINT_X": 626385.99392354104, "POINT_Y": 4269202.0014442001 }, "geometry": { "type": "Point", "coordinates": [ -109.549369053559232, 38.562286953490677 ] } },
{ "type": "Feature", "properties": { "OBJECTID": 3262, "NAME": "JADE MARKET LC", "NBR": null, "STREETADDR": "353 W 200 S", "CITY": "SALT LAKE CITY", "ZIP": "84101", "TYPE": "Grocery Store", "GCSCORE": 100.0, "GCMETHOD": "Centerlines.StatewideRoads", "DAFID": "R77823", "POINT_X": 423939.71104021202, "POINT_Y": 4513045.4739583302 }, "geometry": { "type": "Point", "coordinates": [ -111.901188348995973, 40.764863696446184 ] } },
{ "type": "Feature", "properties": { "OBJECTID": 3263, "NAME": "PACIFIC SEAS", "NBR": null, "STREETADDR": "1151 S REDWOOD RD STE - 107", "CITY": "SALT LAKE CITY", "ZIP": "84104", "TYPE": "Grocery Store", "GCSCORE": 90.919998168945298, "GCMETHOD": "AddressPoints.AddressGrid", "DAFID": "R78166", "POINT_X": 420766.93091413903, "POINT_Y": 4510753.7666253997 }, "geometry": { "type": "Point", "coordinates": [ -111.938485357942639, 40.743921639086487 ] } },
{ "type": "Feature", "properties": { "OBJECTID": 3267, "NAME": "FENIX MARKET LLC", "NBR": null, "STREETADDR": "4099 W 5415 S", "CITY": "KEARNS", "ZIP": "84118", "TYPE": "Grocery Store", "GCSCORE": 100.0, "GCMETHOD": "Centerlines.StatewideRoads", "DAFID": "R78457", "POINT_X": 416403.69608882599, "POINT_Y": 4500669.2198029999 }, "geometry": { "type": "Point", "coordinates": [ -111.988814578834365, 40.652654518812859 ] } },
{ "type": "Feature", "properties": { "OBJECTID": 3269, "NAME": "K & K AFRICAN MARKET LLC", "NBR": null, "STREETADDR": "996 S REDWOOD RD -A", "CITY": "SALT LAKE CITY", "ZIP": "84104", "TYPE": "Grocery Store", "GCSCORE": 90.919998168945298, "GCMETHOD": "AddressPoints.AddressGrid", "DAFID": "R78764", "POINT_X": 420695.85156621702, "POINT_Y": 4511154.5285702199 }, "geometry": { "type": "Point", "coordinates": [ -111.939377958415022, 40.747524626337132 ] } },
{ "type": "Feature", "properties": { "OBJECTID": 3270, "NAME": "COSTCO WHOLESALE", "NBR": "733", "STREETADDR": "198 N 1200 E", "CITY": "LEHI", "ZIP": "84043", "TYPE": "Supermarket", "GCSCORE": 100.0, "GCMETHOD": "Centerlines.StatewideRoads", "DAFID": "R78777", "POINT_X": 429731.54779734003, "POINT_Y": 4471433.1170768598 }, "geometry": { "type": "Point", "coordinates": [ -111.827936936453341, 40.390537033025097 ] } },
{ "type": "Feature", "properties": { "OBJECTID": 3278, "NAME": "ANAYAS MARKET", "NBR": null, "STREETADDR": "4122 S 4000 W", "CITY": "WEST VALLEY CITY", "ZIP": "84120", "TYPE": "Grocery Store", "GCSCORE": 100.0, "GCMETHOD": "AddressPoints.AddressGrid", "DAFID": "R79408", "POINT_X": 416590.94439239299, "POINT_Y": 4503883.02983349 }, "geometry": { "type": "Point", "coordinates": [ -111.987026835544512, 40.681621638731919 ] } },
{ "type": "Feature", "properties": { "OBJECTID": 3279, "NAME": "HARMONS AT THE DISTRICT", "NBR": "86", "STREETADDR": "11453 S PKWY PLAZA DR", "CITY": "SOUTH JORDAN", "ZIP": "84095", "TYPE": "Supermarket", "GCSCORE": 100.0, "GCMETHOD": "AddressPoints.AddressGrid", "DAFID": "R79416", "POINT_X": 417188.72511933098, "POINT_Y": 4488519.2472270597 }, "geometry": { "type": "Point", "coordinates": [ -111.977933797505486, 40.543292050787024 ] } },
{ "type": "Feature", "properties": { "OBJECTID": 3280, "NAME": "LOS PRIMOS MARKET", "NBR": null, "STREETADDR": "45 W 500 N", "CITY": "LOGAN", "ZIP": "84321", "TYPE": "Grocery Store", "GCSCORE": 100.0, "GCMETHOD": "AddressPoints.AddressGrid", "DAFID": "R79444", "POINT_X": 430488.33171970502, "POINT_Y": 4621376.9691939196 }, "geometry": { "type": "Point", "coordinates": [ -111.835955519157068, 41.741173522483045 ] } },
{ "type": "Feature", "properties": { "OBJECTID": 3282, "NAME": "LOS DOS COMPADRES MARKET", "NBR": null, "STREETADDR": "330 E STATE ST", "CITY": "PLEASANT GROVE", "ZIP": "84062", "TYPE": "Grocery Store", "GCSCORE": 100.0, "GCMETHOD": "Centerlines.StatewideRoads", "DAFID": "R79477", "POINT_X": 437527.29056557501, "POINT_Y": 4467429.2983745402 }, "geometry": { "type": "Point", "coordinates": [ -111.735699142515003, 40.355090000579743 ] } },
{ "type": "Feature", "properties": { "OBJECTID": 3285, "NAME": "WAL-MART SUPERCENTER", "NBR": "3848", "STREETADDR": "2228 W 1700 S", "CITY": "SYRACUSE", "ZIP": "84075", "TYPE": "Supermarket", "GCSCORE": 100.0, "GCMETHOD": "AddressPoints.AddressGrid", "DAFID": "R79695", "POINT_X": 410232.67361895402, "POINT_Y": 4549275.1256052498 }, "geometry": { "type": "Point", "coordinates": [ -112.068814341623238, 41.089794199986557 ] } },
{ "type": "Feature", "properties": { "OBJECTID": 3289, "NAME": "LA CANTERA LLC", "NBR": null, "STREETADDR": "3078 W 7800 S UNIT 1B", "CITY": "WEST JORDAN", "ZIP": "84084", "TYPE": "Grocery Store", "GCSCORE": 100.0, "GCMETHOD": "AddressPoints.AddressGrid", "DAFID": "R79818", "POINT_X": 418306.83089753002, "POINT_Y": 4495899.06696398 }, "geometry": { "type": "Point", "coordinates": [ -111.96568723391772, 40.609877760484956 ] } },
{ "type": "Feature", "properties": { "OBJECTID": 3291, "NAME": "MACEYS PROVIDENCE", "NBR": "0971", "STREETADDR": "50 N HWY 165", "CITY": "PROVIDENCE", "ZIP": "84332", "TYPE": "Supermarket", "GCSCORE": 100.0, "GCMETHOD": "AddressPoints.AddressGrid", "DAFID": "R80020", "POINT_X": 430813.53139621601, "POINT_Y": 4617795.6170015801 }, "geometry": { "type": "Point", "coordinates": [ -111.831628946360226, 41.708947718672789 ] } },
{ "type": "Feature", "properties": { "OBJECTID": 3293, "NAME": "WAL-MART SUPERCENTER", "NBR": "5235", "STREETADDR": "9151 S QUARRY BEND DR", "CITY": "SANDY", "ZIP": "84094", "TYPE": "Supermarket", "GCSCORE": null, "GCMETHOD": "Manually Placed", "DAFID": "R80077", "POINT_X": 427209.0, "POINT_Y": 4493094.0 }, "geometry": { "type": "Point", "coordinates": [ -111.860143718219192, 40.585442173003131 ] } },
{ "type": "Feature", "properties": { "OBJECTID": 3294, "NAME": "OCEAN MARKET", "NBR": null, "STREETADDR": "115 W 9000 S", "CITY": "SANDY", "ZIP": "84070", "TYPE": "Supermarket", "GCSCORE": 100.0, "GCMETHOD": "AddressPoints.AddressGrid", "DAFID": "R80111", "POINT_X": 424281.57530204498, "POINT_Y": 4493275.9877315396 }, "geometry": { "type": "Point", "coordinates": [ -111.894753839622027, 40.58681867098759 ] } },
{ "type": "Feature", "properties": { "OBJECTID": 3297, "NAME": "COSTCO WHOLESALE", "NBR": "622", "STREETADDR": "3747 S 2700 W", "CITY": "WEST VALLEY CITY", "ZIP": "84119", "TYPE": "Supermarket", "GCSCORE": 100.0, "GCMETHOD": "Centerlines.StatewideRoads", "DAFID": "R80458", "POINT_X": 419070.477453464, "POINT_Y": 4504856.82703231 }, "geometry": { "type": "Point", "coordinates": [ -111.957814734124042, 40.690640233659948 ] } },
{ "type": "Feature", "properties": { "OBJECTID": 3298, "NAME": "RANCHO MARKETS", "NBR": null, "STREETADDR": "2470 S REDWOOD RD STE 100", "CITY": "WEST VALLEY CITY", "ZIP": "84119", "TYPE": "Grocery Store", "GCSCORE": 100.0, "GCMETHOD": "AddressPoints.AddressGrid", "DAFID": "R80517", "POINT_X": 420565.944329814, "POINT_Y": 4507831.4246129701 }, "geometry": { "type": "Point", "coordinates": [ -111.940494871339169, 40.717579400887807 ] } },
{ "type": "Feature", "properties": { "OBJECTID": 3302, "NAME": "LDS NORTH LOGAN BISHOPS", "NBR": null, "STREETADDR": "165 E 2200 N", "CITY": "NORTH LOGAN", "ZIP": "84341", "TYPE": "Grocery Store", "GCSCORE": 100.0, "GCMETHOD": "AddressPoints.AddressGrid", "DAFID": "R80756", "POINT_X": 431084.73415745603, "POINT_Y": 4624897.4539082302 }, "geometry": { "type": "Point", "coordinates": [ -111.829192011904681, 41.772931164537042 ] } },
{ "type": "Feature", "properties": { "OBJECTID": 3306, "NAME": "TARGET STORE T", "NBR": null, "STREETADDR": "7779 S JORDAN LANDING BLVD", "CITY": "WEST JORDAN", "ZIP": "84084", "TYPE": "Grocery Store", "GCSCORE": 100.0, "GCMETHOD": "AddressPoints.AddressGrid", "DAFID": "R81048", "POINT_X": 416770.28209100303, "POINT_Y": 4495956.8367718803 }, "geometry": { "type": "Point", "coordinates": [ -111.98385570836227, 40.610244810182174 ] } },
{ "type": "Feature", "properties": { "OBJECTID": 3307, "NAME": "EL CENTENARIO MARKET", "NBR": null, "STREETADDR": "2737 S REDWOOD RD", "CITY": "WEST VALLEY CITY", "ZIP": "84119", "TYPE": "Grocery Store", "GCSCORE": 100.0, "GCMETHOD": "AddressPoints.AddressGrid", "DAFID": "R81072", "POINT_X": 420708.90354715497, "POINT_Y": 4507199.3954880498 }, "geometry": { "type": "Point", "coordinates": [ -111.938722480315107, 40.711900189554427 ] } },
{ "type": "Feature", "properties": { "OBJECTID": 3310, "NAME": "SOUTHWAY TRADING LLC", "NBR": null, "STREETADDR": "651 S MAIN", "CITY": "BLANDING", "ZIP": "84511", "TYPE": "Grocery Store", "GCSCORE": 90.919998168945298, "GCMETHOD": "Centerlines.StatewideRoads", "DAFID": "R81175", "POINT_X": 634274.88036206295, "POINT_Y": 4164305.9173206598 }, "geometry": { "type": "Point", "coordinates": [ -109.478569950407731, 37.616063694998147 ] } },
{ "type": "Feature", "properties": { "OBJECTID": 3316, "NAME": "WAL-MART SUPERCENTER", "NBR": "3366", "STREETADDR": "221 W PARRISH LN", "CITY": "CENTERVILLE", "ZIP": "84014", "TYPE": "Supermarket", "GCSCORE": 100.0, "GCMETHOD": "AddressPoints.AddressGrid", "DAFID": "R81848", "POINT_X": 425589.084466553, "POINT_Y": 4530201.2669496704 }, "geometry": { "type": "Point", "coordinates": [ -111.883698664218727, 40.919544076410503 ] } },
{ "type": "Feature", "properties": { "OBJECTID": 3318, "NAME": "HANDY PANTRY", "NBR": null, "STREETADDR": "1252 W 400 S", "CITY": "SALT LAKE CITY", "ZIP": "84104", "TYPE": "Grocery Store", "GCSCORE": 100.0, "GCMETHOD": "AddressPoints.AddressGrid", "DAFID": "R82115", "POINT_X": 421734.20452009601, "POINT_Y": 4512621.8566309102 }, "geometry": { "type": "Point", "coordinates": [ -111.92726361568414, 40.760840961965975 ] } },
{ "type": "Feature", "properties": { "OBJECTID": 3324, "NAME": "TARGET STORE T", "NBR": null, "STREETADDR": "11525 S PKWY PLAZA DR", "CITY": "SOUTH JORDAN", "ZIP": "84095", "TYPE": "Grocery Store", "GCSCORE": 100.0, "GCMETHOD": "AddressPoints.AddressGrid", "DAFID": "R82715", "POINT_X": 417186.226100047, "POINT_Y": 4488375.3273839196 }, "geometry": { "type": "Point", "coordinates": [ -111.977944446349952, 40.54199542183359 ] } },
{ "type": "Feature", "properties": { "OBJECTID": 3325, "NAME": "GOOD EARTH NATURAL FOODS", "NBR": null, "STREETADDR": "336 W MAIN ST", "CITY": "AMERICAN FORK", "ZIP": "84003", "TYPE": "Grocery Store", "GCSCORE": 100.0, "GCMETHOD": "AddressPoints.AddressGrid", "DAFID": "R82861", "POINT_X": 431467.42519959999, "POINT_Y": 4469948.3597088903 }, "geometry": { "type": "Point", "coordinates": [ -111.807326245821884, 40.377306544123307 ] } },
{ "type": "Feature", "properties": { "OBJECTID": 3327, "NAME": "JUNCTION GENERAL STORE LLC", "NBR": null, "STREETADDR": "70 S MAIN", "CITY": "JUNCTION", "ZIP": "84740", "TYPE": "Grocery Store", "GCSCORE": 90.919998168945298, "GCMETHOD": "AddressPoints.AddressGrid", "DAFID": "R82884", "POINT_X": 393215.90461391897, "POINT_Y": 4232700.5043847403 }, "geometry": { "type": "Point", "coordinates": [ -112.220155213437408, 38.23596971879109 ] } },
{ "type": "Feature", "properties": { "OBJECTID": 3332, "NAME": "RANCHO MARKETS", "NBR": null, "STREETADDR": "4071 W 5415 S", "CITY": "KEARNS", "ZIP": "84118", "TYPE": "Supermarket", "GCSCORE": 100.0, "GCMETHOD": "AddressPoints.AddressGrid", "DAFID": "R83056", "POINT_X": 416426.23187348997, "POINT_Y": 4500602.7990232203 }, "geometry": { "type": "Point", "coordinates": [ -111.988539222006963, 40.65205851936016 ] } },
{ "type": "Feature", "properties": { "OBJECTID": 3338, "NAME": "HARMONS BANGERTER CROSSING", "NBR": "16", "STREETADDR": "125 E 13800 S", "CITY": "DRAPER", "ZIP": "84020", "TYPE": "Supermarket", "GCSCORE": 100.0, "GCMETHOD": "AddressPoints.AddressGrid", "DAFID": "R84142", "POINT_X": 424809.99606201699, "POINT_Y": 4483836.8160007102 }, "geometry": { "type": "Point", "coordinates": [ -111.887387167776396, 40.501840011876858 ] } },
{ "type": "Feature", "properties": { "OBJECTID": 3339, "NAME": "WAL-MART SUPERCENTER", "NBR": "3620", "STREETADDR": "13502 S HAMILTON VIEW RD", "CITY": "RIVERTON", "ZIP": "84065", "TYPE": "Supermarket", "GCSCORE": 100.0, "GCMETHOD": "AddressPoints.AddressGrid", "DAFID": "R84144", "POINT_X": 417167.20153263299, "POINT_Y": 4484313.0566811599 }, "geometry": { "type": "Point", "coordinates": [ -111.977637168892997, 40.505401888052823 ] } },
{ "type": "Feature", "properties": { "OBJECTID": 3348, "NAME": "SPROUTS FARMERS MARKET", "NBR": null, "STREETADDR": "6284 S STATE ST", "CITY": "MURRAY", "ZIP": "84107", "TYPE": "Supermarket", "GCSCORE": 100.0, "GCMETHOD": "AddressPoints.AddressGrid", "DAFID": "R85141", "POINT_X": 424714.27457408502, "POINT_Y": 4498565.2560193297 }, "geometry": { "type": "Point", "coordinates": [ -111.890273538174299, 40.634502657826197 ] } },
{ "type": "Feature", "properties": { "OBJECTID": 3349, "NAME": "LEEDS MARKET", "NBR": null, "STREETADDR": "261 N MAIN", "CITY": "LEEDS", "ZIP": "84746", "TYPE": "Grocery Store", "GCSCORE": 90.919998168945298, "GCMETHOD": "AddressPoints.AddressGrid", "DAFID": "R85150", "POINT_X": 290780.55425978999, "POINT_Y": 4124089.3116648602 }, "geometry": { "type": "Point", "coordinates": [ -113.358663440523856, 37.239871197923264 ] } },
{ "type": "Feature", "properties": { "OBJECTID": 3350, "NAME": "EL MEXICANO MARKET", "NBR": null, "STREETADDR": "560 N STATE ST", "CITY": "OREM", "ZIP": "84057", "TYPE": "Supermarket", "GCSCORE": 100.0, "GCMETHOD": "Centerlines.StatewideRoads", "DAFID": "R85282", "POINT_X": 440572.37982308102, "POINT_Y": 4462124.3548956001 }, "geometry": { "type": "Point", "coordinates": [ -111.699348364308221, 40.30752229455166 ] } },
{ "type": "Feature", "properties": { "OBJECTID": 3351, "NAME": "SAMS CLUB", "NBR": "4718", "STREETADDR": "11278 S JORDAN GATEWAY", "CITY": "SOUTH JORDAN", "ZIP": "84095", "TYPE": "Supermarket", "GCSCORE": 100.0, "GCMETHOD": "AddressPoints.AddressGrid", "DAFID": "R85284", "POINT_X": 423692.66296108899, "POINT_Y": 4488893.6476509096 }, "geometry": { "type": "Point", "coordinates": [ -111.901182320748731, 40.547289280151404 ] } },
{ "type": "Feature", "properties": { "OBJECTID": 3353, "NAME": "SPROUTS FARMERS MARKET", "NBR": null, "STREETADDR": "1375 S STATE ST", "CITY": "OREM", "ZIP": "84097", "TYPE": "Supermarket", "GCSCORE": 100.0, "GCMETHOD": "Centerlines.StatewideRoads", "DAFID": "R85649", "POINT_X": 441865.07783974399, "POINT_Y": 4458176.1667164396 }, "geometry": { "type": "Point", "coordinates": [ -111.683778295672198, 40.272045127278155 ] } },
{ "type": "Feature", "properties": { "OBJECTID": 3358, "NAME": "EL CENTRO DE OREM", "NBR": null, "STREETADDR": "845 N 100 W STE 108", "CITY": "OREM", "ZIP": "84057", "TYPE": "Grocery Store", "GCSCORE": 100.0, "GCMETHOD": "AddressPoints.AddressGrid", "DAFID": "R85920", "POINT_X": 440619.81532474299, "POINT_Y": 4462700.9183834204 }, "geometry": { "type": "Point", "coordinates": [ -111.698843728796263, 40.312719728055569 ] } },
{ "type": "Feature", "properties": { "OBJECTID": 3359, "NAME": "SMITHS MARKET PLACE", "NBR": "119", "STREETADDR": "1550 E 3500 N", "CITY": "LEHI", "ZIP": "84043", "TYPE": "Supermarket", "GCSCORE": 100.0, "GCMETHOD": "Centerlines.StatewideRoads", "DAFID": "R86046", "POINT_X": 430066.43763560901, "POINT_Y": 4475993.2877376601 }, "geometry": { "type": "Point", "coordinates": [ -111.82449279287664, 40.431644264631444 ] } },
{ "type": "Feature", "properties": { "OBJECTID": 3365, "NAME": "WAL-MART SUPERCENTER", "NBR": "4689", "STREETADDR": "4689 CEDAR HILLS DR", "CITY": "CEDAR HILLS", "ZIP": "84062", "TYPE": "Supermarket", "GCSCORE": 100.0, "GCMETHOD": "AddressPoints.AddressGrid", "DAFID": "R86561", "POINT_X": 434635.33240218501, "POINT_Y": 4474280.9560797699 }, "geometry": { "type": "Point", "coordinates": [ -111.770455910494945, 40.416590719127285 ] } },
{ "type": "Feature", "properties": { "OBJECTID": 3366, "NAME": "WAL-MART SUPERCENTER", "NBR": "4438", "STREETADDR": "136 W CROSSROADS BLVD", "CITY": "SARATOGA SPRINGS", "ZIP": "84045", "TYPE": "Supermarket", "GCSCORE": null, "GCMETHOD": "Manually Placed", "DAFID": "R86562", "POINT_X": 421947.0, "POINT_Y": 4471347.0 }, "geometry": { "type": "Point", "coordinates": [ -111.919636879674613, 40.389068090369769 ] } },
{ "type": "Feature", "properties": { "OBJECTID": 3367, "NAME": "WAL-MART STORES INC", "NBR": "4678", "STREETADDR": "240 N 3400 W", "CITY": "HURRICANE", "ZIP": "84737", "TYPE": "Supermarket", "GCSCORE": 100.0, "GCMETHOD": "Centerlines.StatewideRoads", "DAFID": "R86716", "POINT_X": 289882.03429958998, "POINT_Y": 4116757.50729329 }, "geometry": { "type": "Point", "coordinates": [ -113.366720896314987, 37.173635893773934 ] } },
{ "type": "Feature", "properties": { "OBJECTID": 3370, "NAME": "FOSTERS SUPERMARKET", "NBR": null, "STREETADDR": "BRYCE CANYON", "CITY": "BRYCE CANYON CITY", "ZIP": "84717", "TYPE": "Grocery Store", "GCSCORE": null, "GCMETHOD": "Manually Placed", "DAFID": "R8681", "POINT_X": 397951.0, "POINT_Y": 4170202.0 }, "geometry": { "type": "Point", "coordinates": [ -112.157189061601969, 37.673338204789395 ] } },
{ "type": "Feature", "properties": { "OBJECTID": 3374, "NAME": "WAL-MART SUPERCENTER", "NBR": "4272", "STREETADDR": "1150 S 100 W", "CITY": "LOGAN", "ZIP": "84321", "TYPE": "Supermarket", "GCSCORE": 100.0, "GCMETHOD": "AddressPoints.AddressGrid", "DAFID": "R86984", "POINT_X": 430451.18056116498, "POINT_Y": 4618148.5495271804 }, "geometry": { "type": "Point", "coordinates": [ -111.836025159551781, 41.712094684018375 ] } },
{ "type": "Feature", "properties": { "OBJECTID": 3380, "NAME": "SMITHS MARKET PLACE", "NBR": "444", "STREETADDR": "555 S 200 W", "CITY": "BOUNTIFUL", "ZIP": "84010", "TYPE": "Supermarket", "GCSCORE": 100.0, "GCMETHOD": "AddressPoints.AddressGrid", "DAFID": "R8808", "POINT_X": 425452.52246013598, "POINT_Y": 4526049.6162814498 }, "geometry": { "type": "Point", "coordinates": [ -111.884821716344419, 40.882136382912911 ] } },
{ "type": "Feature", "properties": { "OBJECTID": 3381, "NAME": "SMITHS MARKET PLACE", "NBR": "477", "STREETADDR": "750 N MAIN ST", "CITY": "LOGAN", "ZIP": "84321", "TYPE": "Supermarket", "GCSCORE": 100.0, "GCMETHOD": "AddressPoints.AddressGrid", "DAFID": "R8813", "POINT_X": 430759.61105256702, "POINT_Y": 4621867.9185867496 }, "geometry": { "type": "Point", "coordinates": [ -111.832750575664292, 41.745618759269547 ] } },
{ "type": "Feature", "properties": { "OBJECTID": 3382, "NAME": "NATURAL GROCERS", "NBR": null, "STREETADDR": "624 W TELEGRAPH ST", "CITY": "WASHINGTON", "ZIP": "84870", "TYPE": "Grocery Store", "GCSCORE": null, "GCMETHOD": "Manually Placed", "DAFID": "R88148", "POINT_X": 276075.0, "POINT_Y": 4112325.0 }, "geometry": { "type": "Point", "coordinates": [ -113.520780936926087, 37.130511783850309 ] } },
{ "type": "Feature", "properties": { "OBJECTID": 3383, "NAME": "SMITHS MARKETPLACE", "NBR": "475", "STREETADDR": "3215 S VALLEY AVE", "CITY": "SALT LAKE CITY", "ZIP": "84109", "TYPE": "Supermarket", "GCSCORE": 90.919998168945298, "GCMETHOD": "AddressPoints.AddressGrid", "DAFID": "R8815", "POINT_X": 432478.783176372, "POINT_Y": 4505853.7397339204 }, "geometry": { "type": "Point", "coordinates": [ -111.799249012439788, 40.700827909763703 ] } },
{ "type": "Feature", "properties": { "OBJECTID": 3384, "NAME": "WINCO FOODS", "NBR": "75", "STREETADDR": "2572 S 5600 W", "CITY": "WEST VALLEY CITY", "ZIP": "84120", "TYPE": "Supermarket", "GCSCORE": 100.0, "GCMETHOD": "AddressPoints.AddressGrid", "DAFID": "R88275", "POINT_X": 413311.77166271198, "POINT_Y": 4507497.0363418804 }, "geometry": { "type": "Point", "coordinates": [ -112.02632481746889, 40.713835708239017 ] } },
{ "type": "Feature", "properties": { "OBJECTID": 3385, "NAME": "WINCO FOODS", "NBR": "73", "STREETADDR": "7020 S 700 W", "CITY": "MIDVALE", "ZIP": "84047", "TYPE": "Supermarket", "GCSCORE": 100.0, "GCMETHOD": "AddressPoints.AddressGrid", "DAFID": "R88276", "POINT_X": 422965.87297403702, "POINT_Y": 4497434.6481836597 }, "geometry": { "type": "Point", "coordinates": [ -111.910807932828746, 40.624157237470591 ] } },
{ "type": "Feature", "properties": { "OBJECTID": 3389, "NAME": "RANCHO MARKETS", "NBR": null, "STREETADDR": "8177 W 3500 S", "CITY": "MAGNA", "ZIP": "84044", "TYPE": "Supermarket", "GCSCORE": 100.0, "GCMETHOD": "AddressPoints.AddressGrid", "DAFID": "R88939", "POINT_X": 408226.57370727602, "POINT_Y": 4505605.8843561802 }, "geometry": { "type": "Point", "coordinates": [ -112.08624281825378, 40.696250925284261 ] } },
{ "type": "Feature", "properties": { "OBJECTID": 3391, "NAME": "WINCO FOODS", "NBR": "79", "STREETADDR": "205 W 12TH ST", "CITY": "OGDEN", "ZIP": "84404", "TYPE": "Supermarket", "GCSCORE": 100.0, "GCMETHOD": "AddressPoints.AddressGrid", "DAFID": "R88999", "POINT_X": 417779.61440033303, "POINT_Y": 4566101.4679486696 }, "geometry": { "type": "Point", "coordinates": [ -111.981228383496827, 41.242141924422171 ] } },
{ "type": "Feature", "properties": { "OBJECTID": 3392, "NAME": "WINCO FOODS", "NBR": "78", "STREETADDR": "6060 S 3500 W", "CITY": "ROY", "ZIP": "84067", "TYPE": "Supermarket", "GCSCORE": 100.0, "GCMETHOD": "AddressPoints.AddressGrid", "DAFID": "R89001", "POINT_X": 410712.74288047699, "POINT_Y": 4556287.1370388297 }, "geometry": { "type": "Point", "coordinates": [ -112.06411904279652, 41.153000768437735 ] } },
{ "type": "Feature", "properties": { "OBJECTID": 3393, "NAME": "WINCO FOODS", "NBR": "76", "STREETADDR": "895 N 980 W", "CITY": "OREM", "ZIP": "84057", "TYPE": "Supermarket", "GCSCORE": 100.0, "GCMETHOD": "AddressPoints.AddressGrid", "DAFID": "R89003", "POINT_X": 438771.87061674497, "POINT_Y": 4462879.2188846096 }, "geometry": { "type": "Point", "coordinates": [ -111.720607496253123, 40.314192575302073 ] } },
{ "type": "Feature", "properties": { "OBJECTID": 3394, "NAME": "BYU", "NBR": null, "STREETADDR": "BYU CAMPUS", "CITY": "PROVO", "ZIP": "84602", "TYPE": "Grocery Store", "GCSCORE": null, "GCMETHOD": "Manually Placed", "DAFID": "R89228", "POINT_X": 444487.0, "POINT_Y": 4455983.0 }, "geometry": { "type": "Point", "coordinates": [ -111.652751579998352, 40.252465353375669 ] } },
{ "type": "Feature", "properties": { "OBJECTID": 3399, "NAME": "SOL FOODS SUPERMARKET", "NBR": null, "STREETADDR": "995 ZION PARK BLVD", "CITY": "SPRINGDALE", "ZIP": "84767", "TYPE": "Grocery Store", "GCSCORE": 100.0, "GCMETHOD": "AddressPoints.AddressGrid", "DAFID": "R89843", "POINT_X": 322438.46467388002, "POINT_Y": 4117585.6453043101 }, "geometry": { "type": "Point", "coordinates": [ -113.000431439860776, 37.187852871470447 ] } },
{ "type": "Feature", "properties": { "OBJECTID": 3403, "NAME": "RED MOUNTAIN MARKET", "NBR": null, "STREETADDR": "374 S 200 E", "CITY": "IVINS", "ZIP": "84738", "TYPE": "Grocery Store", "GCSCORE": 92.430000305175795, "GCMETHOD": "Centerlines.StatewideRoads", "DAFID": "R91029", "POINT_X": 261652.669016748, "POINT_Y": 4116155.07995203 }, "geometry": { "type": "Point", "coordinates": [ -113.684198512434122, 37.161436556208116 ] } },
{ "type": "Feature", "properties": { "OBJECTID": 3405, "NAME": "MARISAS FASHIONS & MARKET", "NBR": "2", "STREETADDR": "67 W 1700 S", "CITY": "SALT LAKE CITY", "ZIP": "84115", "TYPE": "Grocery Store", "GCSCORE": 100.0, "GCMETHOD": "AddressPoints.AddressGrid", "DAFID": "R92242", "POINT_X": 424577.43412540801, "POINT_Y": 4509539.7096444098 }, "geometry": { "type": "Point", "coordinates": [ -111.893210564661942, 40.733344145468131 ] } },
{ "type": "Feature", "properties": { "OBJECTID": 3412, "NAME": "AFRICAN BOUTIQUE", "NBR": null, "STREETADDR": "4152 S 1785 W", "CITY": "TAYLORSVILLE", "ZIP": "84129", "TYPE": "Grocery Store", "GCSCORE": null, "GCMETHOD": "Manually Placed", "DAFID": "R92985", "POINT_X": 420467.0, "POINT_Y": 4503743.0 }, "geometry": { "type": "Point", "coordinates": [ -111.94114765406124, 40.680743366608702 ] } },
{ "type": "Feature", "properties": { "OBJECTID": 3414, "NAME": "TARGET STORE T", "NBR": null, "STREETADDR": "1110 S 300 W", "CITY": "SALT LAKE CITY", "ZIP": "84104", "TYPE": "Grocery Store", "GCSCORE": 100.0, "GCMETHOD": "AddressPoints.AddressGrid", "DAFID": "R93168", "POINT_X": 423866.02111216501, "POINT_Y": 4510792.1777351703 }, "geometry": { "type": "Point", "coordinates": [ -111.901787014082785, 40.744560287230435 ] } },
{ "type": "Feature", "properties": { "OBJECTID": 3418, "NAME": "NEWTON MARKET", "NBR": null, "STREETADDR": "10 E MAIN", "CITY": "NEWTON", "ZIP": "84327", "TYPE": "Grocery Store", "GCSCORE": 90.919998168945298, "GCMETHOD": "AddressPoints.AddressGrid", "DAFID": "R93359", "POINT_X": 417980.16243809799, "POINT_Y": 4634949.2542995103 }, "geometry": { "type": "Point", "coordinates": [ -111.988237137001875, 41.862206397711425 ] } },
{ "type": "Feature", "properties": { "OBJECTID": 3422, "NAME": "GONZALEZ MARKET", "NBR": null, "STREETADDR": "1220 S REDWOOD RD", "CITY": "SALT LAKE CITY", "ZIP": "84104", "TYPE": "Grocery Store", "GCSCORE": 100.0, "GCMETHOD": "AddressPoints.AddressGrid", "DAFID": "R93785", "POINT_X": 420655.825491342, "POINT_Y": 4510677.5569788404 }, "geometry": { "type": "Point", "coordinates": [ -111.939791522095661, 40.743224477334515 ] } },
{ "type": "Feature", "properties": { "OBJECTID": 3425, "NAME": "EL BOLSON MARKET", "NBR": null, "STREETADDR": "987 N MAIN STE 9", "CITY": "CEDAR CITY", "ZIP": "84720", "TYPE": "Grocery Store", "GCSCORE": 90.919998168945298, "GCMETHOD": "AddressPoints.AddressGrid", "DAFID": "R93945", "POINT_X": 318113.02426908002, "POINT_Y": 4173823.7910529398 }, "geometry": { "type": "Point", "coordinates": [ -113.063002825522759, 37.69360921229076 ] } },
{ "type": "Feature", "properties": { "OBJECTID": 3426, "NAME": "SPROUTS FARMERS MARKET", "NBR": null, "STREETADDR": "216 S 700 E", "CITY": "SALT LAKE CITY", "ZIP": "84102", "TYPE": "Grocery Store", "GCSCORE": 100.0, "GCMETHOD": "AddressPoints.AddressGrid", "DAFID": "R94106", "POINT_X": 426355.573358825, "POINT_Y": 4512969.6379747102 }, "geometry": { "type": "Point", "coordinates": [ -111.872558748020055, 40.764400586663221 ] } },
{ "type": "Feature", "properties": { "OBJECTID": 3427, "NAME": "HARMONS STATION PARK STORE", "NBR": null, "STREETADDR": "200 N STATION PKWY", "CITY": "FARMINGTON", "ZIP": "84025", "TYPE": "Supermarket", "GCSCORE": 100.0, "GCMETHOD": "AddressPoints.AddressGrid", "DAFID": "R94162", "POINT_X": 424010.85285370401, "POINT_Y": 4537383.3996430598 }, "geometry": { "type": "Point", "coordinates": [ -111.903320751315761, 40.984089793674791 ] } },
{ "type": "Feature", "properties": { "OBJECTID": 3428, "NAME": "WAL-MART STORES INC", "NBR": "3789", "STREETADDR": "1959 WALL AVE", "CITY": "OGDEN", "ZIP": "84401", "TYPE": "Supermarket", "GCSCORE": 100.0, "GCMETHOD": "AddressPoints.AddressGrid", "DAFID": "R94163", "POINT_X": 417970.63275175, "POINT_Y": 4564998.6556115998 }, "geometry": { "type": "Point", "coordinates": [ -111.978800878089061, 41.232228784961613 ] } },
{ "type": "Feature", "properties": { "OBJECTID": 3429, "NAME": "RANCHO MARKETS", "NBR": null, "STREETADDR": "140 N 900 W", "CITY": "SALT LAKE CITY", "ZIP": "84116", "TYPE": "Grocery Store", "GCSCORE": 100.0, "GCMETHOD": "AddressPoints.AddressGrid", "DAFID": "R94169", "POINT_X": 422726.04369444202, "POINT_Y": 4513904.76542175 }, "geometry": { "type": "Point", "coordinates": [ -111.915672769567735, 40.772490528459727 ] } },
{ "type": "Feature", "properties": { "OBJECTID": 3434, "NAME": "GLAZIERS FAMILY MARKET", "NBR": null, "STREETADDR": "264 S 100 E", "CITY": "KANAB", "ZIP": "84741", "TYPE": "Grocery Store", "GCSCORE": 100.0, "GCMETHOD": "AddressPoints.AddressGrid", "DAFID": "R9475", "POINT_X": 364205.99401454203, "POINT_Y": 4100806.1717543001 }, "geometry": { "type": "Point", "coordinates": [ -112.52700998495618, 37.043662184785923 ] } },
{ "type": "Feature", "properties": { "OBJECTID": 3439, "NAME": "WAL-MART", "NBR": "4696", "STREETADDR": "1274 S HIGHWAY 189", "CITY": "HEBER CITY", "ZIP": "84032", "TYPE": "Grocery Store", "GCSCORE": 100.0, "GCMETHOD": "AddressPoints.AddressGrid", "DAFID": "R95279", "POINT_X": 464508.184292697, "POINT_Y": 4482595.11666435 }, "geometry": { "type": "Point", "coordinates": [ -111.418822773839082, 40.493302228452471 ] } },
{ "type": "Feature", "properties": { "OBJECTID": 3446, "NAME": "SOELBERGS MARKET", "NBR": null, "STREETADDR": "6727 N HWY 36", "CITY": "STANSBURY PARK", "ZIP": "84074", "TYPE": "Supermarket", "GCSCORE": 100.0, "GCMETHOD": "Centerlines.StatewideRoads", "DAFID": "R96516", "POINT_X": 390999.368645854, "POINT_Y": 4501026.3029817296 }, "geometry": { "type": "Point", "coordinates": [ -112.289305804069627, 40.652906483718546 ] } },
{ "type": "Feature", "properties": { "OBJECTID": 3448, "NAME": "CONOCO", "NBR": null, "STREETADDR": "1000 MAIN ST", "CITY": "MONUMENT VALLEY", "ZIP": "84536", "TYPE": "Grocery Store", "GCSCORE": 100.0, "GCMETHOD": "Centerlines.StatewideRoads", "DAFID": "R9657", "POINT_X": 634237.61757665803, "POINT_Y": 4163726.1707653501 }, "geometry": { "type": "Point", "coordinates": [ -109.479098443627379, 37.610845443455148 ] } },
{ "type": "Feature", "properties": { "OBJECTID": 3454, "NAME": "STOKES FRESH MARKET", "NBR": null, "STREETADDR": "795 N STATE RD 198", "CITY": "SALEM", "ZIP": "84653", "TYPE": "Supermarket", "GCSCORE": 83.349998474121094, "GCMETHOD": "Centerlines.StatewideRoads", "DAFID": "R96791", "POINT_X": 445413.00427324401, "POINT_Y": 4452757.59444944 }, "geometry": { "type": "Point", "coordinates": [ -111.641589483425221, 40.223469015181344 ] } },
{ "type": "Feature", "properties": { "OBJECTID": 3455, "NAME": "HARMONS CITY CREEK", "NBR": null, "STREETADDR": "135 E 100 S", "CITY": "SALT LAKE CITY", "ZIP": "84111", "TYPE": "Grocery Store", "GCSCORE": 100.0, "GCMETHOD": "AddressPoints.AddressGrid", "DAFID": "R96986", "POINT_X": 425113.80441190302, "POINT_Y": 4513316.0688735396 }, "geometry": { "type": "Point", "coordinates": [ -111.887311353591429, 40.767408886451555 ] } },
{ "type": "Feature", "properties": { "OBJECTID": 3456, "NAME": "RANCHO MARKET", "NBR": null, "STREETADDR": "898 E 3300 S", "CITY": "SALT LAKE CITY", "ZIP": "84106", "TYPE": "Supermarket", "GCSCORE": 100.0, "GCMETHOD": "AddressPoints.AddressGrid", "DAFID": "R97082", "POINT_X": 426794.481893263, "POINT_Y": 4505674.3254636899 }, "geometry": { "type": "Point", "coordinates": [ -111.866505934306389, 40.698726310208549 ] } },
{ "type": "Feature", "properties": { "OBJECTID": 3468, "NAME": "GRIFFIN MERCANTILE", "NBR": null, "STREETADDR": "30 W MAIN", "CITY": "ESCALANTE", "ZIP": "84726", "TYPE": "Grocery Store", "GCSCORE": 90.919998168945298, "GCMETHOD": "AddressPoints.AddressGrid", "DAFID": "R9859", "POINT_X": 447091.44690328499, "POINT_Y": 4180516.8329555802 }, "geometry": { "type": "Point", "coordinates": [ -111.600749930462982, 37.770455300436339 ] } },
{ "type": "Feature", "properties": { "OBJECTID": 3471, "NAME": "KALACHI`S MEAT MARKET", "NBR": null, "STREETADDR": "SIXTH ST 208", "CITY": "WENDOVER", "ZIP": "84083", "TYPE": "Grocery Store", "GCSCORE": 92.430000305175795, "GCMETHOD": "Centerlines.StatewideRoads", "DAFID": "R99101", "POINT_X": 243702.167307097, "POINT_Y": 4513917.0074300198 }, "geometry": { "type": "Point", "coordinates": [ -114.035204486402478, 40.736303302534139 ] } },
{ "type": "Feature", "properties": { "OBJECTID": 3473, "NAME": "TARGET STORE T", "NBR": null, "STREETADDR": "5518 W HIGH MARKET DR", "CITY": "WEST VALLEY CITY", "ZIP": "84128", "TYPE": "Grocery Store", "GCSCORE": 100.0, "GCMETHOD": "AddressPoints.AddressGrid", "DAFID": "R99311", "POINT_X": 413601.10101507802, "POINT_Y": 4507511.6893658098 }, "geometry": { "type": "Point", "coordinates": [ -112.022901921093862, 40.713998098993187 ] } },
{ "type": "Feature", "properties": { "OBJECTID": 3474, "NAME": "RANCHO MARKET", "NBR": null, "STREETADDR": "404 WASHINGTON BLVD", "CITY": "OGDEN", "ZIP": "84404", "TYPE": "Supermarket", "GCSCORE": 100.0, "GCMETHOD": "AddressPoints.AddressGrid", "DAFID": "R99421", "POINT_X": 418782.145757463, "POINT_Y": 4567628.7933553401 }, "geometry": { "type": "Point", "coordinates": [ -111.969469111172089, 41.255999176757165 ] } },
{ "type": "Feature", "properties": { "OBJECTID": 3475, "NAME": "COSTCO WHOLESALE", "NBR": "1118", "STREETADDR": "273 E 1000 N", "CITY": "SPANISH FORK", "ZIP": "84660", "TYPE": "Supermarket", "GCSCORE": 100.0, "GCMETHOD": "AddressPoints.AddressGrid", "DAFID": "R99538", "POINT_X": 444642.81174673198, "POINT_Y": 4441778.0499782003 }, "geometry": { "type": "Point", "coordinates": [ -111.649697329660128, 40.124504432479156 ] } },
{ "type": "Feature", "properties": { "OBJECTID": 3476, "NAME": "WAL-MART", "NBR": "4208", "STREETADDR": "2705 E PARLEYS WAY", "CITY": "SALT LAKE CITY", "ZIP": "84109", "TYPE": "Supermarket", "GCSCORE": 100.0, "GCMETHOD": "AddressPoints.AddressGrid", "DAFID": "R99637", "POINT_X": 431324.28499478998, "POINT_Y": 4507955.8186926199 }, "geometry": { "type": "Point", "coordinates": [ -111.813143842215894, 40.719667555232327 ] } },
{ "type": "Feature", "properties": { "OBJECTID": 3478, "NAME": "REDWOOD FOOD PANTRY", "NBR": null, "STREETADDR": "3060 S LESTER ST", "CITY": "WEST VALLEY CITY", "ZIP": "84119", "TYPE": "Grocery Store", "GCSCORE": 100.0, "GCMETHOD": "AddressPoints.AddressGrid", "DAFID": "R99895", "POINT_X": 420843.88539374602, "POINT_Y": 4506400.3497345299 }, "geometry": { "type": "Point", "coordinates": [ -111.937023731536954, 40.704715772637506 ] } }
]
}
