{
"type": "FeatureCollection",
"name": "HealthCare",
"crs": { "type": "name", "properties": { "name": "urn:ogc:def:crs:OGC:1.3:CRS84" } },
"features": [
{ "type": "Feature", "properties": { "OBJECTID": 1, "FACTYPE": "011", "FACILITY_I": 728.0, "FACID": "UT460044", "NAME": "ALTA VIEW HOSPITAL", "ADDRESS": "9660 SOUTH 1300 EAST", "CITY": "SANDY", "ZIP": "84094", "TELEPHONE": "8015012600", "TYPE": "HOSPITAL", "COUNTY": "SALT LAKE", "TELEHEALTH": null, "FUNCTIONAL": "INTERMOUNTAIN HEALTH CARE" }, "geometry": { "type": "Point", "coordinates": [ -111.853973013999962, 40.575911232000067 ] } },
{ "type": "Feature", "properties": { "OBJECTID": 2, "FACTYPE": "011", "FACILITY_I": 714.0, "FACID": "UT460023", "NAME": "AMERICAN FORK HOSPITAL", "ADDRESS": "170 NORTH 1100 EAST", "CITY": "AMERICAN FORK", "ZIP": "84003", "TELEPHONE": "8018553300", "TYPE": "HOSPITAL", "COUNTY": "UTAH", "TELEHEALTH": "YES", "FUNCTIONAL": "INTERMOUNTAIN HEALTH CARE" }, "geometry": { "type": "Point", "coordinates": [ -111.767379942, 40.38060106100005 ] } },
{ "type": "Feature", "properties": { "OBJECTID": 3, "FACTYPE": "011", "FACILITY_I": 720.0, "FACID": "UT460030", "NAME": "ASHLEY REGIONAL MEDICAL CENTER", "ADDRESS": "150 WEST 100 NORTH", "CITY": "VERNAL", "ZIP": "84078", "TELEPHONE": "4357893342", "TYPE": "HOSPITAL", "COUNTY": "UINTAH", "TELEHEALTH": null, "FUNCTIONAL": null }, "geometry": { "type": "Point", "coordinates": [ -109.531544825999958, 40.457821847000048 ] } },
{ "type": "Feature", "properties": { "OBJECTID": 4, "FACTYPE": "011", "FACILITY_I": 726.0, "FACID": "UT460039", "NAME": "BEAR RIVER VALLEY HOSPITAL", "ADDRESS": "905 NORTH 1000 WEST", "CITY": "TREMONTON", "ZIP": "84337", "TELEPHONE": "4352074500", "TYPE": "HOSPITAL", "COUNTY": "BOX ELDER", "TELEHEALTH": null, "FUNCTIONAL": "INTERMOUNTAIN HELATH CARE" }, "geometry": { "type": "Point", "coordinates": [ -112.182588836999969, 41.724154861000045 ] } },
{ "type": "Feature", "properties": { "OBJECTID": 5, "FACTYPE": "011", "FACILITY_I": 723.0, "FACID": "UT460035", "NAME": "BEAVER VALLEY HOSPITAL", "ADDRESS": "1109 NORTH 100 WEST", "CITY": "BEAVER", "ZIP": "84713", "TELEPHONE": "4354387102", "TYPE": "HOSPITAL", "COUNTY": "BEAVER", "TELEHEALTH": "YES", "FUNCTIONAL": null }, "geometry": { "type": "Point", "coordinates": [ -112.643870303999961, 38.289155171000061 ] } },
{ "type": "Feature", "properties": { "OBJECTID": 6, "FACTYPE": "011", "FACILITY_I": 708.0, "FACID": "UT460017", "NAME": "BRIGHAM CITY COMMUNITY HOSPITAL", "ADDRESS": "950 SOUTH MEDICAL DRIVE", "CITY": "BRIGHAM CITY", "ZIP": "84302", "TELEPHONE": "4357349471", "TYPE": "HOSPITAL", "COUNTY": "BOX ELDER", "TELEHEALTH": null, "FUNCTIONAL": "MOUNTAINSTAR HEALTH CARE" }, "geometry": { "type": "Point", "coordinates": [ -112.025717524999948, 41.491227966000054 ] } },
{ "type": "Feature", "properties": { "OBJECTID": 7, "FACTYPE": "011", "FACILITY_I": 1014.0, "FACID": "UT501123", "NAME": "CACHE VALLEY HOSPITAL", "ADDRESS": "2380 NORTH 400 EAST", "CITY": "NORTH LOGAN", "ZIP": "84341", "TELEPHONE": "4357139700", "TYPE": "HOSPITAL", "COUNTY": "CACHE", "TELEHEALTH": null, "FUNCTIONAL": "MOUNTAINSTAR HEALTH CARE" }, "geometry": { "type": "Point", "coordinates": [ -111.821242195999957, 41.77557265400003 ] } },
{ "type": "Feature", "properties": { "OBJECTID": 8, "FACTYPE": "011", "FACILITY_I": 704.0, "FACID": "UT460011", "NAME": "CASTLEVIEW HOSPITAL", "ADDRESS": "300 NORTH HOSPITAL DRIVE", "CITY": "PRICE", "ZIP": "84501", "TELEPHONE": "4356374800", "TYPE": "HOSPITAL", "COUNTY": "CARBON", "TELEHEALTH": "YES", "FUNCTIONAL": null }, "geometry": { "type": "Point", "coordinates": [ -110.832951372999958, 39.605173084000057 ] } },
{ "type": "Feature", "properties": { "OBJECTID": 9, "FACTYPE": "011", "FACILITY_I": 695.0, "FACID": "UT460041", "NAME": "DAVIS HOSPITAL AND MEDICAL CENTER", "ADDRESS": "1600 WEST ANTELOPE DRIVE", "CITY": "LAYTON", "ZIP": "84041", "TELEPHONE": "8018071000", "TYPE": "HOSPITAL", "COUNTY": "DAVIS", "TELEHEALTH": "YES", "FUNCTIONAL": "STEWARD HEALTH CARE" }, "geometry": { "type": "Point", "coordinates": [ -111.995428089999962, 41.090986818000033 ] } },
{ "type": "Feature", "properties": { "OBJECTID": 10, "FACTYPE": "011", "FACILITY_I": 712.0, "FACID": "UT460021", "NAME": "DIXIE REGIONAL MEDICAL CENTER RIVER ROAD CAMPUS", "ADDRESS": "1380 EAST MEDICAL CENTER DRIVE", "CITY": "ST GEORGE", "ZIP": "84790", "TELEPHONE": "4352511000", "TYPE": "HOSPITAL", "COUNTY": "WASHINGTON", "TELEHEALTH": null, "FUNCTIONAL": "INTERMOUNTAIN HEALTH CARE" }, "geometry": { "type": "Point", "coordinates": [ -113.553754424999966, 37.097772464000059 ] } },
{ "type": "Feature", "properties": { "OBJECTID": 11, "FACTYPE": "011", "FACILITY_I": 722.0, "FACID": "UT460033", "NAME": "GARFIELD MEMORIAL HOSPITAL", "ADDRESS": "200 NORTH 400 EAST", "CITY": "PANGUITCH", "ZIP": "84759", "TELEPHONE": "4356768811", "TYPE": "HOSPITAL", "COUNTY": "GARFIELD", "TELEHEALTH": null, "FUNCTIONAL": "INTERMOUNTAIN HEALTH CARE" }, "geometry": { "type": "Point", "coordinates": [ -112.426841033999949, 37.826428758000077 ] } },
{ "type": "Feature", "properties": { "OBJECTID": 12, "FACTYPE": "011", "FACILITY_I": 688.0, "FACID": "UT460051", "NAME": "JORDAN VALLEY MEDICAL CENTER", "ADDRESS": "3580 WEST 9000 SOUTH", "CITY": "WEST JORDAN", "ZIP": "84088", "TELEPHONE": "8015618888", "TYPE": "HOSPITAL", "COUNTY": "SALT LAKE", "TELEHEALTH": "YES", "FUNCTIONAL": "STEWARD HEALTH CARE" }, "geometry": { "type": "Point", "coordinates": [ -111.974982036999961, 40.590368378000051 ] } },
{ "type": "Feature", "properties": { "OBJECTID": 13, "FACTYPE": "011", "FACILITY_I": 496.0, "FACID": "UT460042", "NAME": "LAKEVIEW HOSPITAL", "ADDRESS": "630 EAST MEDICAL DRIVE", "CITY": "BOUNTIFUL", "ZIP": "84010", "TELEPHONE": "8012992200", "TYPE": "HOSPITAL", "COUNTY": "DAVIS", "TELEHEALTH": null, "FUNCTIONAL": "MOUNTAINSTAR HEALTH CARE" }, "geometry": { "type": "Point", "coordinates": [ -111.868831969999974, 40.885948598000027 ] } },
{ "type": "Feature", "properties": { "OBJECTID": 14, "FACTYPE": "011", "FACILITY_I": 700.0, "FACID": "UT460006", "NAME": "LDS HOSPITAL", "ADDRESS": "324 8TH AVENUE", "CITY": "SALT LAKE CITY", "ZIP": "84143", "TELEPHONE": "8014081100", "TYPE": "HOSPITAL", "COUNTY": "SALT LAKE", "TELEHEALTH": null, "FUNCTIONAL": "INTERMOUNTAIN HEALTH CARE" }, "geometry": { "type": "Point", "coordinates": [ -111.879743575999953, 40.778539895000051 ] } },
{ "type": "Feature", "properties": { "OBJECTID": 15, "FACTYPE": "011", "FACILITY_I": 707.0, "FACID": "UT460015", "NAME": "LOGAN REGIONAL HOSPITAL", "ADDRESS": "1400 NORTH 500 EAST", "CITY": "LOGAN", "ZIP": "84341", "TELEPHONE": "4357161000", "TYPE": "HOSPITAL", "COUNTY": "CACHE", "TELEHEALTH": "YES", "FUNCTIONAL": "INTERMOUNTAIN HEALTH CARE" }, "geometry": { "type": "Point", "coordinates": [ -111.822088851, 41.755843761000051 ] } },
{ "type": "Feature", "properties": { "OBJECTID": 16, "FACTYPE": "011", "FACILITY_I": 698.0, "FACID": "UT460004", "NAME": "MCKAY DEE HOSPITAL", "ADDRESS": "4401 HARRISON BOULEVARD", "CITY": "OGDEN", "ZIP": "84403", "TELEPHONE": "8013872800", "TYPE": "HOSPITAL", "COUNTY": "WEBER", "TELEHEALTH": "YES", "FUNCTIONAL": "INTERMOUNTAIN HEALTH CARE" }, "geometry": { "type": "Point", "coordinates": [ -111.953386408999961, 41.182613029000038 ] } },
{ "type": "Feature", "properties": { "OBJECTID": 17, "FACTYPE": "011", "FACILITY_I": 705.0, "FACID": "UT460013", "NAME": "MOUNTAIN VIEW HOSPITAL", "ADDRESS": "1000 EAST 100 NORTH", "CITY": "PAYSON", "ZIP": "84651", "TELEPHONE": "8014657100", "TYPE": "HOSPITAL", "COUNTY": "UTAH", "TELEHEALTH": null, "FUNCTIONAL": "MOUNTAINSTAR HEALTH CARE" }, "geometry": { "type": "Point", "coordinates": [ -111.714267899, 40.043976954000073 ] } },
{ "type": "Feature", "properties": { "OBJECTID": 18, "FACTYPE": "011", "FACILITY_I": 706.0, "FACID": "UT460014", "NAME": "MOUNTAIN WEST MEDICAL CENTER", "ADDRESS": "2055 NORTH MAIN STREET", "CITY": "TOOELE", "ZIP": "84074", "TELEPHONE": "4358433700", "TYPE": "HOSPITAL", "COUNTY": "TOOELE", "TELEHEALTH": "YES", "FUNCTIONAL": null }, "geometry": { "type": "Point", "coordinates": [ -112.297300424999946, 40.566521127000044 ] } },
{ "type": "Feature", "properties": { "OBJECTID": 19, "FACTYPE": "011", "FACILITY_I": 699.0, "FACID": "UT460005", "NAME": "OGDEN REGIONAL MEDICAL CENTER", "ADDRESS": "5475 SOUTH 500 EAST", "CITY": "OGDEN", "ZIP": "84405", "TELEPHONE": "8014792111", "TYPE": "HOSPITAL", "COUNTY": "WEBER", "TELEHEALTH": null, "FUNCTIONAL": "MOUNTAINSTAR HEALTH CARE" }, "geometry": { "type": "Point", "coordinates": [ -111.970237617999942, 41.16428159700007 ] } },
{ "type": "Feature", "properties": { "OBJECTID": 20, "FACTYPE": "011", "FACILITY_I": 727.0, "FACID": "UT460043", "NAME": "OREM COMMUNITY HOSPITAL", "ADDRESS": "331 NORTH 400 WEST", "CITY": "OREM", "ZIP": "84057", "TELEPHONE": "8017143307", "TYPE": "HOSPITAL", "COUNTY": "UTAH", "TELEHEALTH": "YES", "FUNCTIONAL": "INTERMOUNTAIN HEALTH CARE" }, "geometry": { "type": "Point", "coordinates": [ -111.707800188999954, 40.303119891000051 ] } },
{ "type": "Feature", "properties": { "OBJECTID": 21, "FACTYPE": "011", "FACILITY_I": 97158.0, "FACID": "UT000377", "NAME": "PARK CITY HOSPITAL", "ADDRESS": "900 ROUND VALLEY DRIVE", "CITY": "PARK CITY", "ZIP": "84060", "TELEPHONE": "4356587000", "TYPE": "HOSPITAL", "COUNTY": "SUMMIT", "TELEHEALTH": "YES", "FUNCTIONAL": "INTERMOUNTAIN HEALTH CARE" }, "geometry": { "type": "Point", "coordinates": [ -111.469346862999942, 40.687815250000028 ] } },
{ "type": "Feature", "properties": { "OBJECTID": 22, "FACTYPE": "011", "FACILITY_I": 65128.0, "FACID": "UT000296", "NAME": "JORDAN VALLEY MEDICAL CENTER WEST VALLEY CAMPUS", "ADDRESS": "3460 SOUTH PIONEER PARKWAY", "CITY": "WEST VALLEY CITY", "ZIP": "84120", "TELEPHONE": "8019643100", "TYPE": "HOSPITAL", "COUNTY": "SALT LAKE", "TELEHEALTH": "YES", "FUNCTIONAL": "STEWARD HEALTH CARE" }, "geometry": { "type": "Point", "coordinates": [ -111.990887523999959, 40.697722807000048 ] } },
{ "type": "Feature", "properties": { "OBJECTID": 23, "FACTYPE": "011", "FACILITY_I": 100924.0, "FACID": "UT000383", "NAME": "RIVERTON HOSPITAL", "ADDRESS": "3741 WEST 12600 SOUTH", "CITY": "RIVERTON", "ZIP": "84065", "TELEPHONE": "8012854000", "TYPE": "HOSPITAL", "COUNTY": "SALT LAKE", "TELEHEALTH": null, "FUNCTIONAL": "INTERMOUNTAIN HEALTH CARE" }, "geometry": { "type": "Point", "coordinates": [ -111.979925785999967, 40.520403480000027 ] } },
{ "type": "Feature", "properties": { "OBJECTID": 24, "FACTYPE": "011", "FACILITY_I": 685.0, "FACID": "UT460003", "NAME": "SALT LAKE REGIONAL MEDICAL CENTER", "ADDRESS": "1050 EAST SOUTH TEMPLE", "CITY": "SALT LAKE CITY", "ZIP": "84102", "TELEPHONE": "8013504111", "TYPE": "HOSPITAL", "COUNTY": "SALT LAKE", "TELEHEALTH": null, "FUNCTIONAL": "STEWARD HEALTH CARE" }, "geometry": { "type": "Point", "coordinates": [ -111.86143496699998, 40.76789726100003 ] } },
{ "type": "Feature", "properties": { "OBJECTID": 25, "FACTYPE": "011", "FACILITY_I": 716.0, "FACID": "UT460026", "NAME": "SEVIER VALLEY MEDICAL CENTER", "ADDRESS": "1000 NORTH MAIN STREET", "CITY": "RICHFIELD", "ZIP": "84701", "TELEPHONE": "4358934100", "TYPE": "HOSPITAL", "COUNTY": "SEVIER", "TELEHEALTH": "YES", "FUNCTIONAL": "INTERMOUNTAIN HEALTH CARE" }, "geometry": { "type": "Point", "coordinates": [ -112.083593942999983, 38.782706493000035 ] } },
{ "type": "Feature", "properties": { "OBJECTID": 26, "FACTYPE": "011", "FACILITY_I": 730.0, "FACID": "UT460047", "NAME": "ST MARKS HOSPITAL", "ADDRESS": "1200 EAST 3900 SOUTH", "CITY": "SALT LAKE CITY", "ZIP": "84124", "TELEPHONE": "8012687111", "TYPE": "HOSPITAL", "COUNTY": "SALT LAKE", "TELEHEALTH": "YES", "FUNCTIONAL": "MOUNTAINSTAR HEALTH CARE" }, "geometry": { "type": "Point", "coordinates": [ -111.856853882999985, 40.685954682000045 ] } },
{ "type": "Feature", "properties": { "OBJECTID": 27, "FACTYPE": "01B", "FACILITY_I": 731.0, "FACID": "UT460049", "NAME": "THE ORTHOPEDIC SPECIALTY HOSPITAL", "ADDRESS": "5848 SOUTH 300 EAST", "CITY": "MURRAY", "ZIP": "84107", "TELEPHONE": "8013144100", "TYPE": "HOSPITAL", "COUNTY": "SALT LAKE", "TELEHEALTH": "YES", "FUNCTIONAL": "INTERMOUNTAIN HEALTH CARE" }, "geometry": { "type": "Point", "coordinates": [ -111.883594869999968, 40.644379129000072 ] } },
{ "type": "Feature", "properties": { "OBJECTID": 28, "FACTYPE": "011", "FACILITY_I": 616.0, "FACID": "UT460052", "NAME": "TIMPANOGOS REGIONAL HOSPITAL", "ADDRESS": "750 WEST 800 NORTH", "CITY": "OREM", "ZIP": "84057", "TELEPHONE": "8017146800", "TYPE": "HOSPITAL", "COUNTY": "UTAH", "TELEHEALTH": "YES", "FUNCTIONAL": "MOUNTAINSTAR HEALTH CARE" }, "geometry": { "type": "Point", "coordinates": [ -111.713702651999938, 40.313599627000031 ] } },
{ "type": "Feature", "properties": { "OBJECTID": 29, "FACTYPE": "011", "FACILITY_I": 710.0, "FACID": "UT460019", "NAME": "UINTAH BASIN MEDICAL CENTER", "ADDRESS": "250 WEST 300 NORTH", "CITY": "ROOSEVELT", "ZIP": "84066", "TELEPHONE": "4357224691", "TYPE": "HOSPITAL", "COUNTY": "DUCHESNE", "TELEHEALTH": "YES", "FUNCTIONAL": null }, "geometry": { "type": "Point", "coordinates": [ -109.996246204999977, 40.304135667000025 ] } },
{ "type": "Feature", "properties": { "OBJECTID": 30, "FACTYPE": "011", "FACILITY_I": 702.0, "FACID": "UT460009", "NAME": "UNIVERSITY OF UTAH HOSPITAL", "ADDRESS": "50 NORTH MEDICAL DRIVE", "CITY": "SALT LAKE CITY", "ZIP": "84132", "TELEPHONE": "8015812121", "TYPE": "HOSPITAL", "COUNTY": "SALT LAKE", "TELEHEALTH": "YES", "FUNCTIONAL": "UNIVERSITY OF UTAH HEALTH" }, "geometry": { "type": "Point", "coordinates": [ -111.83732297399996, 40.771478760000036 ] } },
{ "type": "Feature", "properties": { "OBJECTID": 31, "FACTYPE": "011", "FACILITY_I": 697.0, "FACID": "UT460001", "NAME": "UTAH VALLEY HOSPITAL", "ADDRESS": "1034 NORTH 500 WEST", "CITY": "PROVO", "ZIP": "84604", "TELEPHONE": "8013737850", "TYPE": "HOSPITAL", "COUNTY": "UTAH", "TELEHEALTH": null, "FUNCTIONAL": "INTERMOUNTAIN HEALTH CARE" }, "geometry": { "type": "Point", "coordinates": [ -111.665803383999958, 40.247828754000068 ] } },
{ "type": "Feature", "properties": { "OBJECTID": 32, "FACTYPE": "011", "FACILITY_I": 701.0, "FACID": "UT460007", "NAME": "CEDAR CITY HOSPITAL", "ADDRESS": "1303 NORTH MAIN STREET", "CITY": "CEDAR CITY", "ZIP": "84721", "TELEPHONE": "4358685800", "TYPE": "HOSPITAL", "COUNTY": "IRON", "TELEHEALTH": "YES", "FUNCTIONAL": "INTERMOUNTAIN HEALTH CARE" }, "geometry": { "type": "Point", "coordinates": [ -113.066690996999967, 37.69976954200007 ] } },
{ "type": "Feature", "properties": { "OBJECTID": 36, "FACTYPE": "012", "FACILITY_I": 21750.0, "FACID": "UT207176", "NAME": "HIGHLAND RIDGE HOSPITAL", "ADDRESS": "7309 SOUTH 180 WEST", "CITY": "MIDVALE", "ZIP": "84047", "TELEPHONE": "8015692153", "TYPE": "HOSPITAL", "COUNTY": "SALT LAKE", "TELEHEALTH": null, "FUNCTIONAL": null }, "geometry": { "type": "Point", "coordinates": [ -111.896635610999965, 40.617852006000078 ] } },
{ "type": "Feature", "properties": { "OBJECTID": 42, "FACTYPE": "012", "FACILITY_I": 814.0, "FACID": "UT464001", "NAME": "UTAH STATE HOSPITAL", "ADDRESS": "1300 EAST CENTER STREET", "CITY": "PROVO", "ZIP": "84606", "TELEPHONE": "8013444200", "TYPE": "HOSPITAL", "COUNTY": "UTAH", "TELEHEALTH": null, "FUNCTIONAL": null }, "geometry": { "type": "Point", "coordinates": [ -111.635272639999982, 40.234714220000058 ] } },
{ "type": "Feature", "properties": { "OBJECTID": 44, "FACTYPE": "014", "FACILITY_I": 94767.0, "FACID": "UT000369", "NAME": "BLUE MOUNTAIN HOSPITAL", "ADDRESS": "802 SOUTH 200 WEST", "CITY": "BLANDING", "ZIP": "84511", "TELEPHONE": "4356783993", "TYPE": "HOSPITAL", "COUNTY": "SAN JUAN", "TELEHEALTH": "YES", "FUNCTIONAL": null }, "geometry": { "type": "Point", "coordinates": [ -109.482558872999959, 37.612947164000047 ] } },
{ "type": "Feature", "properties": { "OBJECTID": 45, "FACTYPE": "014", "FACILITY_I": 16642.0, "FACID": "UT00101", "NAME": "CENTRAL VALLEY MEDICAL CENTER", "ADDRESS": "48 WEST 1500 NORTH", "CITY": "NEPHI", "ZIP": "84648", "TELEPHONE": "4356233000", "TYPE": "HOSPITAL", "COUNTY": "JUAB", "TELEHEALTH": "YES", "FUNCTIONAL": null }, "geometry": { "type": "Point", "coordinates": [ -111.837381240999946, 39.73153392100005 ] } },
{ "type": "Feature", "properties": { "OBJECTID": 46, "FACTYPE": "014", "FACILITY_I": 3215.0, "FACID": "UT288641", "NAME": "DELTA COMMUNITY HOSPITAL", "ADDRESS": "126 SOUTH WHITE SAGE AVENUE", "CITY": "DELTA", "ZIP": "84624", "TELEPHONE": "4358645591", "TYPE": "HOSPITAL", "COUNTY": "MILLARD", "TELEHEALTH": "YES", "FUNCTIONAL": "INTERMOUNTAIN HEALTH CARE" }, "geometry": { "type": "Point", "coordinates": [ -112.561009632999969, 39.349998381000034 ] } },
{ "type": "Feature", "properties": { "OBJECTID": 47, "FACTYPE": "014", "FACILITY_I": 3446.0, "FACID": "UT801690", "NAME": "FILLMORE COMMUNITY HOSPITAL", "ADDRESS": "674 SOUTH HIGHWAY 99", "CITY": "FILLMORE", "ZIP": "84631", "TELEPHONE": "4357435591", "TYPE": "HOSPITAL", "COUNTY": "MILLARD", "TELEHEALTH": "YES", "FUNCTIONAL": "INTERMOUNTAIN HEALTH CARE" }, "geometry": { "type": "Point", "coordinates": [ -112.340252834999944, 38.954738904000067 ] } },
{ "type": "Feature", "properties": { "OBJECTID": 48, "FACTYPE": "014", "FACILITY_I": 33801.0, "FACID": "UT000177", "NAME": "GUNNISON VALLEY HOSPITAL", "ADDRESS": "64 EAST 100 NORTH", "CITY": "GUNNISON", "ZIP": "84634", "TELEPHONE": "4355287246", "TYPE": "HOSPITAL", "COUNTY": "SANPETE", "TELEHEALTH": "YES", "FUNCTIONAL": null }, "geometry": { "type": "Point", "coordinates": [ -111.816492859999983, 39.15628132900008 ] } },
{ "type": "Feature", "properties": { "OBJECTID": 49, "FACTYPE": "014", "FACILITY_I": 34972.0, "FACID": "UT000184", "NAME": "HEBER VALLEY HOSPITAL", "ADDRESS": "1485 SOUTH HIGHWAY 40", "CITY": "HEBER CITY", "ZIP": "84032", "TELEPHONE": "4356542500", "TYPE": "HOSPITAL", "COUNTY": "WASATCH", "TELEHEALTH": "YES", "FUNCTIONAL": "INTERMOUNTAIN HEALTH CARE" }, "geometry": { "type": "Point", "coordinates": [ -111.40621262999997, 40.490011143000061 ] } },
{ "type": "Feature", "properties": { "OBJECTID": 50, "FACTYPE": "014", "FACILITY_I": 709.0, "FACID": "UT460018", "NAME": "KANE COUNTY HOSPITAL", "ADDRESS": "355 NORTH MAIN STREET", "CITY": "KANAB", "ZIP": "84741", "TELEPHONE": "4356445811", "TYPE": "HOSPITAL", "COUNTY": "KANE", "TELEHEALTH": null, "FUNCTIONAL": null }, "geometry": { "type": "Point", "coordinates": [ -112.529520285, 37.054462842000078 ] } },
{ "type": "Feature", "properties": { "OBJECTID": 51, "FACTYPE": "014", "FACILITY_I": 17241.0, "FACID": "UT000102", "NAME": "MILFORD MEMORIAL HOSPITAL", "ADDRESS": "850 NORTH MAIN STREET", "CITY": "MILFORD", "ZIP": "84751", "TELEPHONE": "4353872411", "TYPE": "HOSPITAL", "COUNTY": "BEAVER", "TELEHEALTH": null, "FUNCTIONAL": null }, "geometry": { "type": "Point", "coordinates": [ -113.008904890999986, 38.407233996000059 ] } },
{ "type": "Feature", "properties": { "OBJECTID": 52, "FACTYPE": "014", "FACILITY_I": 11354.0, "FACID": "UT236399", "NAME": "MOAB REGIONAL HOSPITAL", "ADDRESS": "450 WEST WILLIAMS WAY", "CITY": "MOAB", "ZIP": "84532", "TELEPHONE": "4357193500", "TYPE": "HOSPITAL", "COUNTY": "GRAND", "TELEHEALTH": "YES", "FUNCTIONAL": null }, "geometry": { "type": "Point", "coordinates": [ -109.559258694, 38.575110772000073 ] } },
{ "type": "Feature", "properties": { "OBJECTID": 53, "FACTYPE": "014", "FACILITY_I": 711.0, "FACID": "UT460020", "NAME": "SAN JUAN HOSPITAL", "ADDRESS": "380 WEST 100 NORTH", "CITY": "MONTICELLO", "ZIP": "84535", "TELEPHONE": "4355872116", "TYPE": "HOSPITAL", "COUNTY": "SAN JUAN", "TELEHEALTH": "YES", "FUNCTIONAL": null }, "geometry": { "type": "Point", "coordinates": [ -109.349880391999989, 37.87447396500005 ] } },
{ "type": "Feature", "properties": { "OBJECTID": 54, "FACTYPE": "014", "FACILITY_I": 16633.0, "FACID": "UT000100", "NAME": "SANPETE VALLEY HOSPITAL", "ADDRESS": "1100 SOUTH MEDICAL DRIVE", "CITY": "MOUNT PLEASANT", "ZIP": "84647", "TELEPHONE": "4357622441", "TYPE": "HOSPITAL", "COUNTY": "SANPETE", "TELEHEALTH": null, "FUNCTIONAL": "INTERMOUNTAIN HEALTH CARE" }, "geometry": { "type": "Point", "coordinates": [ -111.461106482, 39.531242689000067 ] } },
{ "type": "Feature", "properties": { "OBJECTID": 55, "FACTYPE": "015", "FACILITY_I": 2965.0, "FACID": "UT311795", "NAME": "PROMISE HOSPITAL OF SALT LAKE", "ADDRESS": "8TH AVENUE C STREET", "CITY": "SALT LAKE CITY", "ZIP": "84103", "TELEPHONE": "8014087109", "TYPE": "HOSPITAL", "COUNTY": "SALT LAKE", "TELEHEALTH": null, "FUNCTIONAL": "PROMISE HEALTH CARE" }, "geometry": { "type": "Point", "coordinates": [ -111.879734615999951, 40.778345742000056 ] } },
{ "type": "Feature", "properties": { "OBJECTID": 56, "FACTYPE": "015", "FACILITY_I": 619.0, "FACID": "UT462003", "NAME": "SOUTH DAVIS COMMUNITY HOSPITAL", "ADDRESS": "401 SOUTH 400 EAST", "CITY": "BOUNTIFUL", "ZIP": "84010", "TELEPHONE": "8012952361", "TYPE": "HOSPITAL", "COUNTY": "DAVIS", "TELEHEALTH": null, "FUNCTIONAL": null }, "geometry": { "type": "Point", "coordinates": [ -111.871808659999942, 40.885007472000041 ] } },
{ "type": "Feature", "properties": { "OBJECTID": 57, "FACTYPE": "015", "FACILITY_I": 62754.0, "FACID": "UT462005", "NAME": "UTAH VALLEY SPECIALTY HOSPITAL", "ADDRESS": "306 WEST RIVER BEND LANE", "CITY": "PROVO", "ZIP": "84604", "TELEPHONE": "8012268880", "TYPE": "HOSPITAL", "COUNTY": "UTAH", "TELEHEALTH": null, "FUNCTIONAL": null }, "geometry": { "type": "Point", "coordinates": [ -111.66254099799994, 40.305421140000078 ] } },
{ "type": "Feature", "properties": { "OBJECTID": 58, "FACTYPE": "016", "FACILITY_I": 620.0, "FACID": "UT463301", "NAME": "PRIMARY CHILDRENS MEDICAL CENTER", "ADDRESS": "100 NORTH MARIO CAPECCHI DRIVE", "CITY": "SALT LAKE CITY", "ZIP": "84113", "TELEPHONE": "8016626200", "TYPE": "HOSPITAL", "COUNTY": "SALT LAKE", "TELEHEALTH": null, "FUNCTIONAL": "INTERMOUNTAIN HEALTH CARE" }, "geometry": { "type": "Point", "coordinates": [ -111.838822758, 40.771291032000079 ] } },
{ "type": "Feature", "properties": { "OBJECTID": 59, "FACTYPE": "016", "FACILITY_I": 121180.0, "FACID": "UT000440", "NAME": "SHRINERS HOSPITAL FOR CHILDREN", "ADDRESS": "FAIRFAX ROAD AT VIRGINIA STREET", "CITY": "SALT LAKE CITY", "ZIP": "84103", "TELEPHONE": "8015363500", "TYPE": "HOSPITAL", "COUNTY": "SALT LAKE", "TELEHEALTH": null, "FUNCTIONAL": null }, "geometry": { "type": "Point", "coordinates": [ -111.850422520999984, 40.777431687000046 ] } },
{ "type": "Feature", "properties": { "OBJECTID": 60, "FACTYPE": "011", "FACILITY_I": 703.0, "FACID": "UT460010", "NAME": "INTERMOUNTAIN MEDICAL CENTER", "ADDRESS": "5121 SOUTH COTTONWOOD STREET", "CITY": "MURRAY", "ZIP": "84157", "TELEPHONE": "8015074060", "TYPE": "HOSPITAL", "COUNTY": "SALT LAKE", "TELEHEALTH": null, "FUNCTIONAL": "INTERMOUNTAIN HELATH CARE" }, "geometry": { "type": "Point", "coordinates": [ -111.891656177999948, 40.660115936000068 ] } },
{ "type": "Feature", "properties": { "OBJECTID": 828, "FACTYPE": null, "FACILITY_I": 0.0, "FACID": null, "NAME": "BRIGHAM MEDICAL CLINIC", "ADDRESS": "600 WEST HOSPITAL ROAD", "CITY": "BRIGHAM CITY", "ZIP": "84302", "TELEPHONE": "4357342041", "TYPE": "URGENT CARE CLINIC", "COUNTY": "BOX ELDER", "TELEHEALTH": null, "FUNCTIONAL": null }, "geometry": { "type": "Point", "coordinates": [ -112.025723346999939, 41.492052621000028 ] } },
{ "type": "Feature", "properties": { "OBJECTID": 829, "FACTYPE": null, "FACILITY_I": 0.0, "FACID": null, "NAME": "BEAR RIVER MEDICAL ARTS", "ADDRESS": "300 WEST 1400 SOUTH", "CITY": "GARLAND", "ZIP": "84312", "TELEPHONE": "4352572469", "TYPE": "URGENT CARE CLINIC", "COUNTY": "BOX ELDER", "TELEHEALTH": null, "FUNCTIONAL": null }, "geometry": { "type": "Point", "coordinates": [ -112.167300312999942, 41.726716040000042 ] } },
{ "type": "Feature", "properties": { "OBJECTID": 830, "FACTYPE": null, "FACILITY_I": 0.0, "FACID": null, "NAME": "SMITHFIELD CLINIC", "ADDRESS": "291 SOUTH MAIN", "CITY": "SMITHFIELD", "ZIP": "84335", "TELEPHONE": "4355636211", "TYPE": "URGENT CARE CLINIC", "COUNTY": "CACHE", "TELEHEALTH": null, "FUNCTIONAL": null }, "geometry": { "type": "Point", "coordinates": [ -111.833425230999978, 41.830663168000058 ] } },
{ "type": "Feature", "properties": { "OBJECTID": 831, "FACTYPE": null, "FACILITY_I": 0.0, "FACID": null, "NAME": "INTERMOUNTAIN MEDICAL GROUP BUDGE CLINIC", "ADDRESS": "1350 NORTH 500 EAST", "CITY": "LOGAN", "ZIP": "84341", "TELEPHONE": "4357921940", "TYPE": "URGENT CARE CLINIC", "COUNTY": "CACHE", "TELEHEALTH": null, "FUNCTIONAL": null }, "geometry": { "type": "Point", "coordinates": [ -111.820899222999969, 41.756779171000062 ] } },
{ "type": "Feature", "properties": { "OBJECTID": 832, "FACTYPE": null, "FACILITY_I": 0.0, "FACID": null, "NAME": "INTERMOUNTAIN MEDICAL GROUP INSTACARE - LOGAN", "ADDRESS": "412 NORTH 200 EAST", "CITY": "LOGAN", "ZIP": "84321", "TELEPHONE": "4357132710", "TYPE": "URGENT CARE CLINIC", "COUNTY": "CACHE", "TELEHEALTH": "YES", "FUNCTIONAL": null }, "geometry": { "type": "Point", "coordinates": [ -111.828814967999961, 41.739435379000042 ] } },
{ "type": "Feature", "properties": { "OBJECTID": 833, "FACTYPE": null, "FACILITY_I": 0.0, "FACID": null, "NAME": "HELPER CLINIC", "ADDRESS": "125 SOUTH MAIN STREET", "CITY": "HELPER", "ZIP": "84526", "TELEPHONE": "4354727000", "TYPE": "URGENT CARE CLINIC", "COUNTY": "CARBON", "TELEHEALTH": "YES", "FUNCTIONAL": "ASSOCIATION OF UTAH COMMUNITY HEALTH (AUCH)" }, "geometry": { "type": "Point", "coordinates": [ -110.854315500999974, 39.684781982000061 ] } },
{ "type": "Feature", "properties": { "OBJECTID": 834, "FACTYPE": null, "FACILITY_I": 0.0, "FACID": null, "NAME": "EAST CARBON CLINIC", "ADDRESS": "305 EAST CENTER STREET", "CITY": "EAST CARBON", "ZIP": "84520", "TELEPHONE": "4358884411", "TYPE": "URGENT CARE CLINIC", "COUNTY": "CARBON", "TELEHEALTH": "YES", "FUNCTIONAL": "ASSOCIATION OF UTAH COMMUNITY HEALTH (AUCH)" }, "geometry": { "type": "Point", "coordinates": [ -110.416691433999972, 39.54370934700006 ] } },
{ "type": "Feature", "properties": { "OBJECTID": 835, "FACTYPE": null, "FACILITY_I": 0.0, "FACID": null, "NAME": "INTERMOUNTAIN MEDICAL GROUP INSTACARE - SYRACUSE", "ADDRESS": "745 SOUTH 2000 WEST", "CITY": "SYRACUSE", "ZIP": "84075", "TELEPHONE": "8015252400", "TYPE": "URGENT CARE CLINIC", "COUNTY": "DAVIS", "TELEHEALTH": null, "FUNCTIONAL": null }, "geometry": { "type": "Point", "coordinates": [ -112.063612593999949, 41.103139985000041 ] } },
{ "type": "Feature", "properties": { "OBJECTID": 836, "FACTYPE": null, "FACILITY_I": 0.0, "FACID": null, "NAME": "AFTER HOURS MEDICAL - LAYTON", "ADDRESS": "1550 NORTH MAIN ST", "CITY": "LAYTON", "ZIP": "84041", "TELEPHONE": "8016149030", "TYPE": "URGENT CARE CLINIC", "COUNTY": "DAVIS", "TELEHEALTH": null, "FUNCTIONAL": null }, "geometry": { "type": "Point", "coordinates": [ -111.993481721999956, 41.083185107000077 ] } },
{ "type": "Feature", "properties": { "OBJECTID": 837, "FACTYPE": null, "FACILITY_I": 0.0, "FACID": null, "NAME": "WEE CARE PEDIATRICS - SYRACUSE", "ADDRESS": "1792 WEST ANTELOPE HWY (1700 SOUTH)", "CITY": "SYRACUSE", "ZIP": "84075", "TELEPHONE": "8017738644", "TYPE": "URGENT CARE CLINIC", "COUNTY": "DAVIS", "TELEHEALTH": null, "FUNCTIONAL": null }, "geometry": { "type": "Point", "coordinates": [ -112.060834893999981, 41.089560100000028 ] } },
{ "type": "Feature", "properties": { "OBJECTID": 838, "FACTYPE": null, "FACILITY_I": 0.0, "FACID": null, "NAME": "INTERMOUNTAIN MEDICAL GROUP INSTACARE - BOUNTIFUL", "ADDRESS": "390 N MAIN STREET", "CITY": "BOUNTIFUL", "ZIP": "84010", "TELEPHONE": "8012926100", "TYPE": "URGENT CARE CLINIC", "COUNTY": "DAVIS", "TELEHEALTH": null, "FUNCTIONAL": null }, "geometry": { "type": "Point", "coordinates": [ -111.880206881, 40.893276053000079 ] } },
{ "type": "Feature", "properties": { "OBJECTID": 839, "FACTYPE": null, "FACILITY_I": 0.0, "FACID": null, "NAME": "INTERMOUNTAIN MEDICAL GROUP INSTACARE - LAYTON", "ADDRESS": "2075 UNIVERSITY PARK BLVD. (1200 WEST)", "CITY": "LAYTON", "ZIP": "84041", "TELEPHONE": "8017796200", "TYPE": "URGENT CARE CLINIC", "COUNTY": "DAVIS", "TELEHEALTH": null, "FUNCTIONAL": null }, "geometry": { "type": "Point", "coordinates": [ -111.988616578999938, 41.090453197000045 ] } },
{ "type": "Feature", "properties": { "OBJECTID": 840, "FACTYPE": null, "FACILITY_I": 0.0, "FACID": null, "NAME": "TANNER CLINIC - SYRACUSE", "ADDRESS": "2038 WEST 1900 SOUTH", "CITY": "SYRACUSE", "ZIP": "84075", "TELEPHONE": "8017734840", "TYPE": "URGENT CARE CLINIC", "COUNTY": "DAVIS", "TELEHEALTH": null, "FUNCTIONAL": null }, "geometry": { "type": "Point", "coordinates": [ -112.065364890999945, 41.086849624000081 ] } },
{ "type": "Feature", "properties": { "OBJECTID": 841, "FACTYPE": null, "FACILITY_I": 0.0, "FACID": null, "NAME": "TANNER CLINIC - LAYTON", "ADDRESS": "2121 NORTH ROBINS DR (1700 WEST)", "CITY": "LAYTON", "ZIP": "84041", "TELEPHONE": "8017734840", "TYPE": "URGENT CARE CLINIC", "COUNTY": "DAVIS", "TELEHEALTH": null, "FUNCTIONAL": null }, "geometry": { "type": "Point", "coordinates": [ -111.998310701999969, 41.09084 ] } },
{ "type": "Feature", "properties": { "OBJECTID": 842, "FACTYPE": null, "FACILITY_I": 0.0, "FACID": null, "NAME": "TANNER CLINIC - KAYSVILLE", "ADDRESS": "380 NORTH 400 WEST", "CITY": "KAYSVILLE", "ZIP": "84037", "TELEPHONE": "8017734840", "TYPE": "URGENT CARE CLINIC", "COUNTY": "DAVIS", "TELEHEALTH": null, "FUNCTIONAL": null }, "geometry": { "type": "Point", "coordinates": [ -111.945450385999948, 41.040551319000031 ] } },
{ "type": "Feature", "properties": { "OBJECTID": 843, "FACTYPE": null, "FACILITY_I": 0.0, "FACID": null, "NAME": "DAVIS FAMILY PHYSICIANS", "ADDRESS": "2084 NORTH ROBINS DR (1700 WEST) #A", "CITY": "LAYTON", "ZIP": "84041", "TELEPHONE": "8017737232", "TYPE": "URGENT CARE CLINIC", "COUNTY": "DAVIS", "TELEHEALTH": null, "FUNCTIONAL": null }, "geometry": { "type": "Point", "coordinates": [ -111.996778510999945, 41.090221451000048 ] } },
{ "type": "Feature", "properties": { "OBJECTID": 844, "FACTYPE": null, "FACILITY_I": 0.0, "FACID": null, "NAME": "INTERMOUNTAIN MEDICAL GROUP KIDS CARE - BOUNTIFUL", "ADDRESS": "390 N MAIN STREET", "CITY": "BOUNTIFUL", "ZIP": "84010", "TELEPHONE": "8012949933", "TYPE": "URGENT CARE CLINIC", "COUNTY": "DAVIS", "TELEHEALTH": null, "FUNCTIONAL": null }, "geometry": { "type": "Point", "coordinates": [ -111.880206881, 40.893276053000079 ] } },
{ "type": "Feature", "properties": { "OBJECTID": 845, "FACTYPE": null, "FACILITY_I": 0.0, "FACID": null, "NAME": "WESTSIDE MEDICAL", "ADDRESS": "1477 NORTH 2000 WEST", "CITY": "CLINTON", "ZIP": "84015", "TELEPHONE": "8017748888", "TYPE": "URGENT CARE CLINIC", "COUNTY": "DAVIS", "TELEHEALTH": null, "FUNCTIONAL": null }, "geometry": { "type": "Point", "coordinates": [ -112.065197823999938, 41.13535196600003 ] } },
{ "type": "Feature", "properties": { "OBJECTID": 846, "FACTYPE": null, "FACILITY_I": 0.0, "FACID": null, "NAME": "WEE CARE PEDIATRICS - KAYSVILLE", "ADDRESS": "934 SOUTH MAIN ST #8 (LAYTON)", "CITY": "LAYTON", "ZIP": "84041", "TELEPHONE": "8017738644", "TYPE": "URGENT CARE CLINIC", "COUNTY": "DAVIS", "TELEHEALTH": null, "FUNCTIONAL": null }, "geometry": { "type": "Point", "coordinates": [ -111.954073384999958, 41.046133673000043 ] } },
{ "type": "Feature", "properties": { "OBJECTID": 847, "FACTYPE": null, "FACILITY_I": 0.0, "FACID": null, "NAME": "WEE CARE PEDIATRICS - LAYTON", "ADDRESS": "1580 W ANTELOPE HWY #100", "CITY": "LAYTON", "ZIP": "84041", "TELEPHONE": "8017738644", "TYPE": "URGENT CARE CLINIC", "COUNTY": "DAVIS", "TELEHEALTH": null, "FUNCTIONAL": null }, "geometry": { "type": "Point", "coordinates": [ -111.99370817099998, 41.089847572000053 ] } },
{ "type": "Feature", "properties": { "OBJECTID": 848, "FACTYPE": null, "FACILITY_I": 0.0, "FACID": null, "NAME": "WEE CARE PEDIATRICS - ROY", "ADDRESS": "5991 SOUTH 3500 WEST", "CITY": "ROY", "ZIP": "84067", "TELEPHONE": "8017738644", "TYPE": "URGENT CARE CLINIC", "COUNTY": "WEBER", "TELEHEALTH": null, "FUNCTIONAL": null }, "geometry": { "type": "Point", "coordinates": [ -112.064794580999944, 41.154661753000028 ] } },
{ "type": "Feature", "properties": { "OBJECTID": 849, "FACTYPE": null, "FACILITY_I": 0.0, "FACID": null, "NAME": "INTERMOUNTAIN MEDICAL GROUP KIDS CARE - LAYTON", "ADDRESS": "2075 UNIVERSITY PARK BLVD. (1200 WEST)", "CITY": "LAYTON", "ZIP": "84041", "TELEPHONE": "8017796200", "TYPE": "URGENT CARE CLINIC", "COUNTY": "DAVIS", "TELEHEALTH": null, "FUNCTIONAL": null }, "geometry": { "type": "Point", "coordinates": [ -111.988616578999938, 41.090453197000045 ] } },
{ "type": "Feature", "properties": { "OBJECTID": 850, "FACTYPE": null, "FACILITY_I": 0.0, "FACID": null, "NAME": "UINTAH BASIN MEDICAL CENTER", "ADDRESS": "210 WEST 300 NORTH", "CITY": "ROOSEVELT", "ZIP": "84066", "TELEPHONE": "4357226130", "TYPE": "URGENT CARE CLINIC", "COUNTY": "DUCHESNE", "TELEHEALTH": null, "FUNCTIONAL": null }, "geometry": { "type": "Point", "coordinates": [ -109.996254910999937, 40.30411988600008 ] } },
{ "type": "Feature", "properties": { "OBJECTID": 851, "FACTYPE": null, "FACILITY_I": 0.0, "FACID": null, "NAME": "GREEN RIVER MEDICAL CENTER", "ADDRESS": "585 WEST MAIN STREET", "CITY": "GREEN RIVER", "ZIP": "84525", "TELEPHONE": "4355643434", "TYPE": "URGENT CARE CLINIC", "COUNTY": "EMERY", "TELEHEALTH": "YES", "FUNCTIONAL": "ASSOCIATION OF UTAH COMMUNITY HEALTH (AUCH)" }, "geometry": { "type": "Point", "coordinates": [ -110.169873920999976, 38.994729753000058 ] } },
{ "type": "Feature", "properties": { "OBJECTID": 852, "FACTYPE": null, "FACILITY_I": 0.0, "FACID": null, "NAME": "CEDAR VALLEY MEDICAL CLINIC", "ADDRESS": "55 EAST CANYON COMMERCIAL AVE", "CITY": "CEDAR CITY", "ZIP": "84721", "TELEPHONE": "4358671960", "TYPE": "URGENT CARE CLINIC", "COUNTY": "IRON", "TELEHEALTH": null, "FUNCTIONAL": null }, "geometry": { "type": "Point", "coordinates": [ -113.060462819999941, 37.709234799000058 ] } },
{ "type": "Feature", "properties": { "OBJECTID": 853, "FACTYPE": null, "FACILITY_I": 0.0, "FACID": null, "NAME": "COLOR COUNTRY PEDIATRICS", "ADDRESS": "1333 NORTH MAIN STREET", "CITY": "CEDAR CITY", "ZIP": "84721", "TELEPHONE": "4358650218", "TYPE": "URGENT CARE CLINIC", "COUNTY": "IRON", "TELEHEALTH": null, "FUNCTIONAL": null }, "geometry": { "type": "Point", "coordinates": [ -113.064526909999984, 37.701819818000047 ] } },
{ "type": "Feature", "properties": { "OBJECTID": 854, "FACTYPE": null, "FACILITY_I": 0.0, "FACID": null, "NAME": "INTERMOUNTAIN MEDICAL GROUP INSTACARE - CEDAR CITY", "ADDRESS": "962 SAGE DRIVE", "CITY": "CEDAR CITY", "ZIP": "84720", "TELEPHONE": "4358653440", "TYPE": "URGENT CARE CLINIC", "COUNTY": "IRON", "TELEHEALTH": "YES", "FUNCTIONAL": null }, "geometry": { "type": "Point", "coordinates": [ -113.081371560999969, 37.660953730000074 ] } },
{ "type": "Feature", "properties": { "OBJECTID": 855, "FACTYPE": null, "FACILITY_I": 0.0, "FACID": null, "NAME": "NEPHI MEDICAL CLINIC", "ADDRESS": "48 WEST 1500 NORTH", "CITY": "NEPHI", "ZIP": "84648", "TELEPHONE": "4356233200", "TYPE": "URGENT CARE CLINIC", "COUNTY": "JUAB", "TELEHEALTH": null, "FUNCTIONAL": null }, "geometry": { "type": "Point", "coordinates": [ -111.837381240999946, 39.73153392100005 ] } },
{ "type": "Feature", "properties": { "OBJECTID": 856, "FACTYPE": null, "FACILITY_I": 0.0, "FACID": null, "NAME": "KANE COUNTY CLINIC", "ADDRESS": "355 NORTH MAIN STREET", "CITY": "KANAB", "ZIP": "84741", "TELEPHONE": "4356444100", "TYPE": "URGENT CARE CLINIC", "COUNTY": "KANE", "TELEHEALTH": null, "FUNCTIONAL": null }, "geometry": { "type": "Point", "coordinates": [ -112.529520285, 37.054462842000078 ] } },
{ "type": "Feature", "properties": { "OBJECTID": 857, "FACTYPE": null, "FACILITY_I": 0.0, "FACID": null, "NAME": "INTERMOUNTAIN MEDICAL GROUP FILLMORE MEDICAL CLINIC", "ADDRESS": "700 SOUTH HIGHWAY 99", "CITY": "FILLMORE", "ZIP": "84631", "TELEPHONE": "4357435555", "TYPE": "URGENT CARE CLINIC", "COUNTY": "MILLARD", "TELEHEALTH": null, "FUNCTIONAL": null }, "geometry": { "type": "Point", "coordinates": [ -112.340250451999964, 38.954734876000032 ] } },
{ "type": "Feature", "properties": { "OBJECTID": 858, "FACTYPE": null, "FACILITY_I": 0.0, "FACID": null, "NAME": "DELTA FAMILY MEDICINE", "ADDRESS": "140 SOUTH WHITE SAGE AVE", "CITY": "DELTA", "ZIP": "84624", "TELEPHONE": "435864333", "TYPE": "URGENT CARE CLINIC", "COUNTY": "MILLARD", "TELEHEALTH": null, "FUNCTIONAL": null }, "geometry": { "type": "Point", "coordinates": [ -112.561009632999969, 39.349998381000034 ] } },
{ "type": "Feature", "properties": { "OBJECTID": 859, "FACTYPE": null, "FACILITY_I": 0.0, "FACID": null, "NAME": "HEALTH CLINICS OF UTAH - SALT LAKE CITY", "ADDRESS": "3195 SOUTH MAIN STREET", "CITY": "SALT LAKE CITY", "ZIP": "84115", "TELEPHONE": "8014680354", "TYPE": "URGENT CARE CLINIC", "COUNTY": "SALT LAKE", "TELEHEALTH": null, "FUNCTIONAL": null }, "geometry": { "type": "Point", "coordinates": [ -111.890757931999985, 40.701429165000036 ] } },
{ "type": "Feature", "properties": { "OBJECTID": 860, "FACTYPE": null, "FACILITY_I": 0.0, "FACID": null, "NAME": "SOUTH JORDAN FAMILY MEDICINE", "ADDRESS": "10623 SOUTH REDWOOD ROAD", "CITY": "SOUTH JORDAN", "ZIP": "84095", "TELEPHONE": "8013020899", "TYPE": "URGENT CARE CLINIC", "COUNTY": "SALT LAKE", "TELEHEALTH": null, "FUNCTIONAL": null }, "geometry": { "type": "Point", "coordinates": [ -111.938260860999947, 40.55820202700005 ] } },
{ "type": "Feature", "properties": { "OBJECTID": 861, "FACTYPE": null, "FACILITY_I": 0.0, "FACID": null, "NAME": "INTERMOUNTAIN MEDICAL GROUP KIDS CARE - WEST JORDAN", "ADDRESS": "2655 WEST 900 SOUTH", "CITY": "WEST JORDAN", "ZIP": "84088", "TELEPHONE": "8015689933", "TYPE": "URGENT CARE CLINIC", "COUNTY": "SALT LAKE", "TELEHEALTH": null, "FUNCTIONAL": null }, "geometry": { "type": "Point", "coordinates": [ -111.956931959999963, 40.58719188300006 ] } },
{ "type": "Feature", "properties": { "OBJECTID": 862, "FACTYPE": null, "FACILITY_I": 0.0, "FACID": null, "NAME": "JORDAN FAMILY HEALTH", "ADDRESS": "8846 SOUTH REDWOOD ROAD, SUITE E-121", "CITY": "WEST JORDAN", "ZIP": "84088", "TELEPHONE": "8015691999", "TYPE": "URGENT CARE CLINIC", "COUNTY": "SALT LAKE", "TELEHEALTH": null, "FUNCTIONAL": null }, "geometry": { "type": "Point", "coordinates": [ -111.940569577999952, 40.59054806100005 ] } },
{ "type": "Feature", "properties": { "OBJECTID": 863, "FACTYPE": null, "FACILITY_I": 0.0, "FACID": null, "NAME": "FOOTHILL FAMILY CLINIC", "ADDRESS": "2295 FOOTHILL DRIVE", "CITY": "SALT LAKE CITY", "ZIP": "84109", "TELEPHONE": "8014863021", "TYPE": "URGENT CARE CLINIC", "COUNTY": "SALT LAKE", "TELEHEALTH": null, "FUNCTIONAL": null }, "geometry": { "type": "Point", "coordinates": [ -111.811283107999941, 40.721700464000037 ] } },
{ "type": "Feature", "properties": { "OBJECTID": 864, "FACTYPE": null, "FACILITY_I": 0.0, "FACID": null, "NAME": "SOUTHWEST CHILDREN'S CLINIC", "ADDRESS": "8822 SOUTH REDWOOD ROAD", "CITY": "WEST JORDAN", "ZIP": "84088", "TELEPHONE": "8015631975", "TYPE": "URGENT CARE CLINIC", "COUNTY": "SALT LAKE", "TELEHEALTH": null, "FUNCTIONAL": null }, "geometry": { "type": "Point", "coordinates": [ -111.93938554999994, 40.591371903000038 ] } },
{ "type": "Feature", "properties": { "OBJECTID": 865, "FACTYPE": null, "FACILITY_I": 0.0, "FACID": null, "NAME": "ALPINE MEDICAL GROUP", "ADDRESS": "1060 EAST 100 SOUTH, #400", "CITY": "SALT LAKE CITY", "ZIP": "84102", "TELEPHONE": "8015212640", "TYPE": "URGENT CARE CLINIC", "COUNTY": "SALT LAKE", "TELEHEALTH": null, "FUNCTIONAL": null }, "geometry": { "type": "Point", "coordinates": [ -111.860456423999949, 40.766871833000039 ] } },
{ "type": "Feature", "properties": { "OBJECTID": 866, "FACTYPE": null, "FACILITY_I": 0.0, "FACID": null, "NAME": "ST. MARKS FAMILY MEDICINE", "ADDRESS": "1250 EAST 3900 SOUTH, #260", "CITY": "SALT LAKE CITY", "ZIP": "84124", "TELEPHONE": "8012652000", "TYPE": "URGENT CARE CLINIC", "COUNTY": "SALT LAKE", "TELEHEALTH": null, "FUNCTIONAL": null }, "geometry": { "type": "Point", "coordinates": [ -111.85570632699995, 40.685936618000028 ] } },
{ "type": "Feature", "properties": { "OBJECTID": 867, "FACTYPE": null, "FACILITY_I": 0.0, "FACID": null, "NAME": "INTERMOUNTAIN MEDICAL GROUP MOUNTAIN VIEW KIDS CARE", "ADDRESS": "9720 SOUTH 1300 EAST", "CITY": "SANDY", "ZIP": "84094", "TELEPHONE": "8015019933", "TYPE": "URGENT CARE CLINIC", "COUNTY": "SALT LAKE", "TELEHEALTH": null, "FUNCTIONAL": null }, "geometry": { "type": "Point", "coordinates": [ -111.853918261, 40.57482004700006 ] } },
{ "type": "Feature", "properties": { "OBJECTID": 868, "FACTYPE": null, "FACILITY_I": 0.0, "FACID": null, "NAME": "INTERMOUNTAIN MEDICAL GROUP KIDS CARE - TAYLORSVILLE", "ADDRESS": "3845 WEST 4700 SOUTH", "CITY": "TAYLORSVILLE", "ZIP": "84118", "TELEPHONE": "8015689933", "TYPE": "URGENT CARE CLINIC", "COUNTY": "SALT LAKE", "TELEHEALTH": null, "FUNCTIONAL": null }, "geometry": { "type": "Point", "coordinates": [ -111.98270159499998, 40.666575322000028 ] } },
{ "type": "Feature", "properties": { "OBJECTID": 869, "FACTYPE": null, "FACILITY_I": 0.0, "FACID": null, "NAME": "INTERMOUNTAIN MEDICAL GROUP INSTACARE - RIVERTON", "ADDRESS": "3723 WEST 12600 SOUTH, #150", "CITY": "RIVERTON", "ZIP": "84065", "TELEPHONE": "8012854600", "TYPE": "URGENT CARE CLINIC", "COUNTY": "SALT LAKE", "TELEHEALTH": null, "FUNCTIONAL": null }, "geometry": { "type": "Point", "coordinates": [ -111.980397418999985, 40.52080217200006 ] } },
{ "type": "Feature", "properties": { "OBJECTID": 870, "FACTYPE": null, "FACILITY_I": 0.0, "FACID": null, "NAME": "INTERMOUNTAIN MEDICAL GROUP INSTACARE - TAYLORSVILLE", "ADDRESS": "3845 WEST 4700 SOUTH", "CITY": "TAYLORSVILLE", "ZIP": "84118", "TELEPHONE": "8015689933", "TYPE": "URGENT CARE CLINIC", "COUNTY": "SALT LAKE", "TELEHEALTH": null, "FUNCTIONAL": null }, "geometry": { "type": "Point", "coordinates": [ -111.98270159499998, 40.666575322000028 ] } },
{ "type": "Feature", "properties": { "OBJECTID": 871, "FACTYPE": null, "FACILITY_I": 0.0, "FACID": null, "NAME": "INTERMOUNTAIN MEDICAL GROUP INSTACARE - SANDY", "ADDRESS": "9493 SOUTH 700 EAST", "CITY": "SANDY", "ZIP": "84070", "TELEPHONE": "8015760176", "TYPE": "URGENT CARE CLINIC", "COUNTY": "SALT LAKE", "TELEHEALTH": null, "FUNCTIONAL": null }, "geometry": { "type": "Point", "coordinates": [ -111.871803722999971, 40.578966500000035 ] } },
{ "type": "Feature", "properties": { "OBJECTID": 872, "FACTYPE": null, "FACILITY_I": 0.0, "FACID": null, "NAME": "AFTER HOURS MEDICAL - SANDY", "ADDRESS": "7998 SOUTH 1300 EAST", "CITY": "SANDY", "ZIP": "84094", "TELEPHONE": "8012252000", "TYPE": "URGENT CARE CLINIC", "COUNTY": "SALT LAKE", "TELEHEALTH": null, "FUNCTIONAL": null }, "geometry": { "type": "Point", "coordinates": [ -111.85399190399994, 40.606181671000058 ] } },
{ "type": "Feature", "properties": { "OBJECTID": 873, "FACTYPE": null, "FACILITY_I": 0.0, "FACID": null, "NAME": "AFTER HOURS MEDICAL - SOUTH JORDAN", "ADDRESS": "10433 SOUTH REDWOOD ROAD", "CITY": "SOUTH JORDAN", "ZIP": "84095", "TELEPHONE": "8015010500", "TYPE": "URGENT CARE CLINIC", "COUNTY": "SALT LAKE", "TELEHEALTH": null, "FUNCTIONAL": null }, "geometry": { "type": "Point", "coordinates": [ -111.937896290999959, 40.561709568000026 ] } },
{ "type": "Feature", "properties": { "OBJECTID": 874, "FACTYPE": null, "FACILITY_I": 0.0, "FACID": null, "NAME": "AFTER HOURS MEDICAL - DRAPER", "ADDRESS": "1126 EAST 12300 SOUTH", "CITY": "DRAPER", "ZIP": "84020", "TELEPHONE": "8015450600", "TYPE": "URGENT CARE CLINIC", "COUNTY": "SALT LAKE", "TELEHEALTH": null, "FUNCTIONAL": null }, "geometry": { "type": "Point", "coordinates": [ -111.857695535999937, 40.527375944000028 ] } },
{ "type": "Feature", "properties": { "OBJECTID": 875, "FACTYPE": null, "FACILITY_I": 0.0, "FACID": null, "NAME": "FOURTH STREET CLINIC", "ADDRESS": "404 SOUTH 400 WEST", "CITY": "SALT LAKE CITY", "ZIP": "84101", "TELEPHONE": "8013640058", "TYPE": "URGENT CARE CLINIC", "COUNTY": "SALT LAKE", "TELEHEALTH": "YES", "FUNCTIONAL": "ASSOCIATION OF UTAH COMMUNITY HEALTH (AUCH)" }, "geometry": { "type": "Point", "coordinates": [ -111.902896324999972, 40.760341125000025 ] } },
{ "type": "Feature", "properties": { "OBJECTID": 876, "FACTYPE": null, "FACILITY_I": 0.0, "FACID": null, "NAME": "INTERMOUNTAIN MEDICAL GROUP MEMORIAL INSTACARE", "ADDRESS": "2000 SOUTH 900 EAST", "CITY": "SALT LAKE CITY", "ZIP": "84105", "TELEPHONE": "8014647788", "TYPE": "URGENT CARE CLINIC", "COUNTY": "SALT LAKE", "TELEHEALTH": null, "FUNCTIONAL": null }, "geometry": { "type": "Point", "coordinates": [ -111.865851651999947, 40.727201543000035 ] } },
{ "type": "Feature", "properties": { "OBJECTID": 877, "FACTYPE": null, "FACILITY_I": 0.0, "FACID": null, "NAME": "INTERMOUNTAIN MEDICAL GROUP INSTACARE - MURRY", "ADDRESS": "181 Medical Tower Dr", "CITY": "MURRAY", "ZIP": "84107", "TELEPHONE": "8016395500", "TYPE": "URGENT CARE CLINIC", "COUNTY": "SALT LAKE", "TELEHEALTH": null, "FUNCTIONAL": null }, "geometry": { "type": "Point", "coordinates": [ -111.885740866999981, 40.644085222000058 ] } },
{ "type": "Feature", "properties": { "OBJECTID": 878, "FACTYPE": null, "FACILITY_I": 0.0, "FACID": null, "NAME": "INTERMOUNTAIN MEDICAL GROUP PEDIATRIC CLINIC", "ADDRESS": "508 EAST SOUTH TEMPLE", "CITY": "SALT LAKE CITY", "ZIP": "84102", "TELEPHONE": "8013554316", "TYPE": "URGENT CARE CLINIC", "COUNTY": "SALT LAKE", "TELEHEALTH": null, "FUNCTIONAL": null }, "geometry": { "type": "Point", "coordinates": [ -111.876342214999966, 40.768971881000027 ] } },
{ "type": "Feature", "properties": { "OBJECTID": 879, "FACTYPE": null, "FACILITY_I": 0.0, "FACID": null, "NAME": "INTERMOUNTAIN MEDICAL GROUP INSTACARE - HOLIDAY", "ADDRESS": "3934 SOUTH 2300 EAST", "CITY": "SALT LAKE CITY", "ZIP": "84124", "TELEPHONE": "8012736777", "TYPE": "URGENT CARE CLINIC", "COUNTY": "SALT LAKE", "TELEHEALTH": null, "FUNCTIONAL": null }, "geometry": { "type": "Point", "coordinates": [ -111.824970556999972, 40.686350873000038 ] } },
{ "type": "Feature", "properties": { "OBJECTID": 880, "FACTYPE": null, "FACILITY_I": 0.0, "FACID": null, "NAME": "INTERMOUNTAIN MEDICAL GROUP MEMORIAL KIDS CARE", "ADDRESS": "2000 SOUTH 900 EAST", "CITY": "SALT LAKE CITY", "ZIP": "84105", "TELEPHONE": "8014647788", "TYPE": "URGENT CARE CLINIC", "COUNTY": "SALT LAKE", "TELEHEALTH": null, "FUNCTIONAL": null }, "geometry": { "type": "Point", "coordinates": [ -111.865851651999947, 40.727201543000035 ] } },
{ "type": "Feature", "properties": { "OBJECTID": 881, "FACTYPE": null, "FACILITY_I": 0.0, "FACID": null, "NAME": "EXODUS - WEST VALLEY URGENT CARE", "ADDRESS": "3336 SOUTH PIONEER PKWY", "CITY": "WEST VALLEY", "ZIP": "84120", "TELEPHONE": "8012509638", "TYPE": "URGENT CARE CLINIC", "COUNTY": "SALT LAKE", "TELEHEALTH": null, "FUNCTIONAL": null }, "geometry": { "type": "Point", "coordinates": [ -111.990843349999977, 40.699973602000057 ] } },
{ "type": "Feature", "properties": { "OBJECTID": 882, "FACTYPE": null, "FACILITY_I": 0.0, "FACID": null, "NAME": "GRANGER MEDICAL CLINIC", "ADDRESS": "3725 WEST 4100 SOUTH", "CITY": "WEST VALLEY", "ZIP": "84120", "TELEPHONE": "8014667705", "TYPE": "URGENT CARE CLINIC", "COUNTY": "SALT LAKE", "TELEHEALTH": null, "FUNCTIONAL": null }, "geometry": { "type": "Point", "coordinates": [ -111.980287534999945, 40.681333381000059 ] } },
{ "type": "Feature", "properties": { "OBJECTID": 883, "FACTYPE": null, "FACILITY_I": 0.0, "FACID": null, "NAME": "EXODUS - MAGNA URGENT CARE", "ADDRESS": "3665 SOUTH 8400 WEST, SUITE 110", "CITY": "MAGNA", "ZIP": "84044", "TELEPHONE": "8012509638", "TYPE": "URGENT CARE CLINIC", "COUNTY": "SALT LAKE", "TELEHEALTH": null, "FUNCTIONAL": null }, "geometry": { "type": "Point", "coordinates": [ -112.091000996, 40.693047471000057 ] } },
{ "type": "Feature", "properties": { "OBJECTID": 884, "FACTYPE": null, "FACILITY_I": 0.0, "FACID": null, "NAME": "AFTER HOURS MEDICAL - WEST VALLEY", "ADDRESS": "3451 SOUTH 5600 WEST", "CITY": "WEST VALLEY", "ZIP": "84120", "TELEPHONE": "8019570900", "TYPE": "URGENT CARE CLINIC", "COUNTY": "SALT LAKE", "TELEHEALTH": null, "FUNCTIONAL": null }, "geometry": { "type": "Point", "coordinates": [ -112.023618427999963, 40.69749171400008 ] } },
{ "type": "Feature", "properties": { "OBJECTID": 885, "FACTYPE": null, "FACILITY_I": 0.0, "FACID": null, "NAME": "MILLCREEK PRIMARY CARE", "ADDRESS": "4465 SOUTH 900 EAST, #200", "CITY": "SALT LAKE CITY", "ZIP": "84124", "TELEPHONE": "8012662777", "TYPE": "URGENT CARE CLINIC", "COUNTY": "SALT LAKE", "TELEHEALTH": null, "FUNCTIONAL": null }, "geometry": { "type": "Point", "coordinates": [ -111.865206348999948, 40.675467924000031 ] } },
{ "type": "Feature", "properties": { "OBJECTID": 886, "FACTYPE": null, "FACILITY_I": 0.0, "FACID": null, "NAME": "UUHC REDWOOD URGENT CARE", "ADDRESS": "1525 WEST 2100 SOUTH", "CITY": "SALT LAKE CITY", "ZIP": "84119", "TELEPHONE": "8012139900", "TYPE": "URGENT CARE CLINIC", "COUNTY": "SALT LAKE", "TELEHEALTH": "YES", "FUNCTIONAL": null }, "geometry": { "type": "Point", "coordinates": [ -111.933127319, 40.725340942000059 ] } },
{ "type": "Feature", "properties": { "OBJECTID": 887, "FACTYPE": null, "FACILITY_I": 0.0, "FACID": null, "NAME": "COPPERVIEW MEDICAL CENTER", "ADDRESS": "3556 WEST 9800 SOUTH, #101", "CITY": "SOUTH JORDAN", "ZIP": "84095", "TELEPHONE": "8015679780", "TYPE": "URGENT CARE CLINIC", "COUNTY": "SALT LAKE", "TELEHEALTH": null, "FUNCTIONAL": null }, "geometry": { "type": "Point", "coordinates": [ -111.975768370999958, 40.573652687000049 ] } },
{ "type": "Feature", "properties": { "OBJECTID": 888, "FACTYPE": null, "FACILITY_I": 0.0, "FACID": null, "NAME": "INTERMOUNTAIN MEDICAL GROUP INSTACARE - WEST JORDAN", "ADDRESS": "2655 WEST 900 SOUTH", "CITY": "WEST JORDAN", "ZIP": "84088", "TELEPHONE": "8015689933", "TYPE": "URGENT CARE CLINIC", "COUNTY": "SALT LAKE", "TELEHEALTH": null, "FUNCTIONAL": null }, "geometry": { "type": "Point", "coordinates": [ -111.956931959999963, 40.58719188300006 ] } },
{ "type": "Feature", "properties": { "OBJECTID": 889, "FACTYPE": null, "FACILITY_I": 0.0, "FACID": null, "NAME": "JACKSON FAMILY MEDICAL", "ADDRESS": "95 EAST CENTER STREET", "CITY": "GUNNISON", "ZIP": "84634", "TELEPHONE": "4355287752", "TYPE": "URGENT CARE CLINIC", "COUNTY": "SANPETE", "TELEHEALTH": null, "FUNCTIONAL": null }, "geometry": { "type": "Point", "coordinates": [ -111.815601176999962, 39.155415315000027 ] } },
{ "type": "Feature", "properties": { "OBJECTID": 890, "FACTYPE": null, "FACILITY_I": 0.0, "FACID": null, "NAME": "PARK CITY HEALTHCARE", "ADDRESS": "1665 BONANZA DRIVE", "CITY": "PARK CITY", "ZIP": "84060", "TELEPHONE": "4356497640", "TYPE": "URGENT CARE CLINIC", "COUNTY": "SUMMIT", "TELEHEALTH": null, "FUNCTIONAL": null }, "geometry": { "type": "Point", "coordinates": [ -111.501077941999938, 40.662288540000077 ] } },
{ "type": "Feature", "properties": { "OBJECTID": 891, "FACTYPE": null, "FACILITY_I": 0.0, "FACID": null, "NAME": "GRANTSVILLE MEDICAL", "ADDRESS": "822 EAST MAIN STREET", "CITY": "GRANSVILLE", "ZIP": "84029", "TELEPHONE": "4358843578", "TYPE": "URGENT CARE CLINIC", "COUNTY": "TOOELE", "TELEHEALTH": null, "FUNCTIONAL": null }, "geometry": { "type": "Point", "coordinates": [ -112.425363521999941, 40.599256396000044 ] } },
{ "type": "Feature", "properties": { "OBJECTID": 892, "FACTYPE": null, "FACILITY_I": 0.0, "FACID": null, "NAME": "BASIN CLINIC", "ADDRESS": "379 NORTH 500 WEST", "CITY": "VERNAL", "ZIP": "84078", "TELEPHONE": "4357816634", "TYPE": "URGENT CARE CLINIC", "COUNTY": "UINTAH", "TELEHEALTH": "YES", "FUNCTIONAL": null }, "geometry": { "type": "Point", "coordinates": [ -109.538856707999969, 40.461422567000056 ] } },
{ "type": "Feature", "properties": { "OBJECTID": 893, "FACTYPE": null, "FACILITY_I": 0.0, "FACID": null, "NAME": "UTAH VALLEY PEDIATRICS - PROVO NORTH", "ADDRESS": "1355 NORTH UNIVERSITY AVE., #210", "CITY": "PROVO", "ZIP": "84604", "TELEPHONE": "8013738930", "TYPE": "URGENT CARE CLINIC", "COUNTY": "UTAH", "TELEHEALTH": null, "FUNCTIONAL": null }, "geometry": { "type": "Point", "coordinates": [ -111.659140955999987, 40.252449119000062 ] } },
{ "type": "Feature", "properties": { "OBJECTID": 894, "FACTYPE": null, "FACILITY_I": 0.0, "FACID": null, "NAME": "UTAH VALLEY PEDIATRICS - PROVO", "ADDRESS": "1055 NORTH 300 WEST, #311", "CITY": "PROVO", "ZIP": "84604", "TELEPHONE": "8013577883", "TYPE": "URGENT CARE CLINIC", "COUNTY": "UTAH", "TELEHEALTH": null, "FUNCTIONAL": null }, "geometry": { "type": "Point", "coordinates": [ -111.664383209, 40.247879710000063 ] } },
{ "type": "Feature", "properties": { "OBJECTID": 895, "FACTYPE": null, "FACILITY_I": 0.0, "FACID": null, "NAME": "UTAH VALLEY PEDIATRICS - TIMPANOGOS", "ADDRESS": "716 WEST 800 NORTH, #300", "CITY": "OREM", "ZIP": "84057", "TELEPHONE": "8012240421", "TYPE": "URGENT CARE CLINIC", "COUNTY": "UTAH", "TELEHEALTH": null, "FUNCTIONAL": null }, "geometry": { "type": "Point", "coordinates": [ -111.713692475999949, 40.313449236000054 ] } },
{ "type": "Feature", "properties": { "OBJECTID": 896, "FACTYPE": null, "FACILITY_I": 0.0, "FACID": null, "NAME": "AFTER HOURS MEDICAL - AMERICAN FORK", "ADDRESS": "476 NORTH 900 WEST, #C", "CITY": "AMERICAN FORK", "ZIP": "84003", "TELEPHONE": "8014921611", "TYPE": "URGENT CARE CLINIC", "COUNTY": "UTAH", "TELEHEALTH": null, "FUNCTIONAL": null }, "geometry": { "type": "Point", "coordinates": [ -111.82094720799995, 40.387547992000066 ] } },
{ "type": "Feature", "properties": { "OBJECTID": 897, "FACTYPE": null, "FACILITY_I": 0.0, "FACID": null, "NAME": "INTERMOUNTAIN MEDICAL GROUP INSTACARE - OREM", "ADDRESS": "1975 NORTH STATE STREET", "CITY": "OREM", "ZIP": "84057", "TELEPHONE": "8017145000", "TYPE": "URGENT CARE CLINIC", "COUNTY": "UTAH", "TELEHEALTH": null, "FUNCTIONAL": null }, "geometry": { "type": "Point", "coordinates": [ -111.714018492999969, 40.333101210000052 ] } },
{ "type": "Feature", "properties": { "OBJECTID": 898, "FACTYPE": null, "FACILITY_I": 0.0, "FACID": null, "NAME": "UUHC PARKWAY URGENT CARE", "ADDRESS": "145 WEST UNIVERSITY PARKWAY", "CITY": "OREM", "ZIP": "84058", "TELEPHONE": "8012348600", "TYPE": "URGENT CARE CLINIC", "COUNTY": "UTAH", "TELEHEALTH": null, "FUNCTIONAL": null }, "geometry": { "type": "Point", "coordinates": [ -111.698778617999949, 40.272822503000043 ] } },
{ "type": "Feature", "properties": { "OBJECTID": 899, "FACTYPE": null, "FACILITY_I": 0.0, "FACID": null, "NAME": "WASATCH MEDICAL CENTER", "ADDRESS": "575 SOUTH STATE STREET", "CITY": "OREM", "ZIP": "84058", "TELEPHONE": "8012252926", "TYPE": "URGENT CARE CLINIC", "COUNTY": "UTAH", "TELEHEALTH": null, "FUNCTIONAL": null }, "geometry": { "type": "Point", "coordinates": [ -111.689349364999941, 40.286748817000046 ] } },
{ "type": "Feature", "properties": { "OBJECTID": 900, "FACTYPE": null, "FACILITY_I": 0.0, "FACID": null, "NAME": "TRI-CITRY MEDICAL CENTER", "ADDRESS": "830 NORTH 200 WEST", "CITY": "PLEASANT GROVE", "ZIP": "84062", "TELEPHONE": "8017563511", "TYPE": "URGENT CARE CLINIC", "COUNTY": "UTAH", "TELEHEALTH": null, "FUNCTIONAL": null }, "geometry": { "type": "Point", "coordinates": [ -111.768384721999951, 40.37275234100008 ] } },
{ "type": "Feature", "properties": { "OBJECTID": 901, "FACTYPE": null, "FACILITY_I": 0.0, "FACID": null, "NAME": "INTERMOUNTAIN MEDICAL GROUP INSTACARE - SARATOGA SPRINGS", "ADDRESS": "354 WEST STATE ROAD 73 (CEDAR FORT RD)", "CITY": "SARATOGA SPRINGS", "ZIP": "84045", "TELEPHONE": "8017664567", "TYPE": "URGENT CARE CLINIC", "COUNTY": "UTAH", "TELEHEALTH": null, "FUNCTIONAL": null }, "geometry": { "type": "Point", "coordinates": [ -111.925072076999982, 40.388127178000047 ] } },
{ "type": "Feature", "properties": { "OBJECTID": 902, "FACTYPE": null, "FACILITY_I": 0.0, "FACID": null, "NAME": "UTAH VALLEY PEDIATRICS - CHERRY TREE", "ADDRESS": "171 NORTH 400 WEST, #C-12", "CITY": "OREM", "ZIP": "84057", "TELEPHONE": "8012244550", "TYPE": "URGENT CARE CLINIC", "COUNTY": "UTAH", "TELEHEALTH": null, "FUNCTIONAL": null }, "geometry": { "type": "Point", "coordinates": [ -111.705650448999961, 40.30014619800005 ] } },
{ "type": "Feature", "properties": { "OBJECTID": 903, "FACTYPE": null, "FACILITY_I": 0.0, "FACID": null, "NAME": "UTAH VALLEY PEDIATRICS - AMERICAN FORK", "ADDRESS": "1159 EAST 200 NORTH, #200", "CITY": "AMERICAN FORK", "ZIP": "84003", "TELEPHONE": "8017565209", "TYPE": "URGENT CARE CLINIC", "COUNTY": "UTAH", "TELEHEALTH": null, "FUNCTIONAL": null }, "geometry": { "type": "Point", "coordinates": [ -111.768338493999977, 40.381645064000054 ] } },
{ "type": "Feature", "properties": { "OBJECTID": 904, "FACTYPE": null, "FACILITY_I": 0.0, "FACID": null, "NAME": "UTAH COUTNY MEDICAL ASSOCIATES (UCMA)", "ADDRESS": "97 SOUTH PROFESSIONAL WAY", "CITY": "PAYSON", "ZIP": "84651", "TELEPHONE": "8014654896", "TYPE": "URGENT CARE CLINIC", "COUNTY": "UTAH", "TELEHEALTH": null, "FUNCTIONAL": null }, "geometry": { "type": "Point", "coordinates": [ -111.712783517999981, 40.043237667000028 ] } },
{ "type": "Feature", "properties": { "OBJECTID": 905, "FACTYPE": null, "FACILITY_I": 0.0, "FACID": null, "NAME": "SANTAQUIN MEDICAL CLINIC", "ADDRESS": "94 WEST MAIN STREET", "CITY": "SANTAQUIN", "ZIP": "84655", "TELEPHONE": "8017543122", "TYPE": "URGENT CARE CLINIC", "COUNTY": "UTAH", "TELEHEALTH": null, "FUNCTIONAL": null }, "geometry": { "type": "Point", "coordinates": [ -111.787028898999949, 39.975906773000077 ] } },
{ "type": "Feature", "properties": { "OBJECTID": 906, "FACTYPE": null, "FACILITY_I": 0.0, "FACID": null, "NAME": "ART CITY MEDICAL CENTER", "ADDRESS": "5 EAST 400 NORTH", "CITY": "SPRINGVILLE", "ZIP": "84663", "TELEPHONE": "8014898464", "TYPE": "URGENT CARE CLINIC", "COUNTY": "UTAH", "TELEHEALTH": null, "FUNCTIONAL": null }, "geometry": { "type": "Point", "coordinates": [ -111.610220634999962, 40.172621904000039 ] } },
{ "type": "Feature", "properties": { "OBJECTID": 907, "FACTYPE": null, "FACILITY_I": 0.0, "FACID": null, "NAME": "INTERMOUNTAIN MEDICAL GROUP INSTACARE - SPRINGVILLE", "ADDRESS": "762 WEST 400 NORTH", "CITY": "SPRINGVILLE", "ZIP": "84663", "TELEPHONE": "8013577531", "TYPE": "URGENT CARE CLINIC", "COUNTY": "UTAH", "TELEHEALTH": null, "FUNCTIONAL": null }, "geometry": { "type": "Point", "coordinates": [ -111.625536955999962, 40.16169810100007 ] } },
{ "type": "Feature", "properties": { "OBJECTID": 908, "FACTYPE": null, "FACILITY_I": 0.0, "FACID": null, "NAME": "INTERMOUNTAIN MEDICAL GROUP INSTACARE - PROVO", "ADDRESS": "1134 NORTH 500 WEST, #102", "CITY": "PROVO", "ZIP": "84604", "TELEPHONE": "8013571770", "TYPE": "URGENT CARE CLINIC", "COUNTY": "UTAH", "TELEHEALTH": null, "FUNCTIONAL": null }, "geometry": { "type": "Point", "coordinates": [ -111.665807106999978, 40.247956845000033 ] } },
{ "type": "Feature", "properties": { "OBJECTID": 909, "FACTYPE": null, "FACILITY_I": 0.0, "FACID": null, "NAME": "SPANISH FORK CLINIC", "ADDRESS": "325 WEST CENTER STREET", "CITY": "SPANISH FORK", "ZIP": "84660", "TELEPHONE": "8017987301", "TYPE": "URGENT CARE CLINIC", "COUNTY": "UTAH", "TELEHEALTH": null, "FUNCTIONAL": null }, "geometry": { "type": "Point", "coordinates": [ -111.660232157999985, 40.109466284000064 ] } },
{ "type": "Feature", "properties": { "OBJECTID": 910, "FACTYPE": null, "FACILITY_I": 0.0, "FACID": null, "NAME": "AMERICAN FORK CLINIC", "ADDRESS": "226 NORTH 1100 EAST, #A", "CITY": "AMERICAN FORK", "ZIP": "84003", "TELEPHONE": "8017633843", "TYPE": "URGENT CARE CLINIC", "COUNTY": "UTAH", "TELEHEALTH": null, "FUNCTIONAL": null }, "geometry": { "type": "Point", "coordinates": [ -111.768388602999948, 40.381648606000056 ] } },
{ "type": "Feature", "properties": { "OBJECTID": 911, "FACTYPE": null, "FACILITY_I": 0.0, "FACID": null, "NAME": "PAYSON OFFICE", "ADDRESS": "15 S 1000 E, SUITE200", "CITY": "PAYSON", "ZIP": "84651", "TELEPHONE": "8014652800", "TYPE": "URGENT CARE CLINIC", "COUNTY": "UTAH", "TELEHEALTH": null, "FUNCTIONAL": null }, "geometry": { "type": "Point", "coordinates": [ -111.715251108999951, 40.043622217000063 ] } },
{ "type": "Feature", "properties": { "OBJECTID": 912, "FACTYPE": null, "FACILITY_I": 0.0, "FACID": null, "NAME": "INTERMOUNTAIN MEDICAL GROUP DIXON HEALTH CENTER", "ADDRESS": "750 WEST 200 NORTH", "CITY": "PROVO", "ZIP": "84601", "TELEPHONE": "8013575757", "TYPE": "URGENT CARE CLINIC", "COUNTY": "UTAH", "TELEHEALTH": null, "FUNCTIONAL": null }, "geometry": { "type": "Point", "coordinates": [ -111.671800473999951, 40.236886870000035 ] } },
{ "type": "Feature", "properties": { "OBJECTID": 913, "FACTYPE": null, "FACILITY_I": 0.0, "FACID": null, "NAME": "HILDALE HEALTH SERVICE CENTER", "ADDRESS": "1065 NORTH HILDALE STREET", "CITY": "HILDALE", "ZIP": "84784", "TELEPHONE": "4358742217", "TYPE": "URGENT CARE CLINIC", "COUNTY": "WASHINGTON", "TELEHEALTH": null, "FUNCTIONAL": null }, "geometry": { "type": "Point", "coordinates": [ -112.96706009199994, 37.008547118000024 ] } },
{ "type": "Feature", "properties": { "OBJECTID": 914, "FACTYPE": null, "FACILITY_I": 0.0, "FACID": null, "NAME": "NIGHT LIGHT PEDIATRICS", "ADDRESS": "1240 EAST 100 SOUTH, #14", "CITY": "ST GEORGE", "ZIP": "84790", "TELEPHONE": "4356288232", "TYPE": "URGENT CARE CLINIC", "COUNTY": "WASHINGTON", "TELEHEALTH": null, "FUNCTIONAL": null }, "geometry": { "type": "Point", "coordinates": [ -113.557370885999944, 37.105523577000042 ] } },
{ "type": "Feature", "properties": { "OBJECTID": 915, "FACTYPE": null, "FACILITY_I": 0.0, "FACID": null, "NAME": "ST. GEORGE CLINIC", "ADDRESS": "736 SOUTH 900 EAST, #203", "CITY": "ST GEORGE", "ZIP": "84790", "TELEPHONE": "4356736131", "TYPE": "URGENT CARE CLINIC", "COUNTY": "WASHINGTON", "TELEHEALTH": null, "FUNCTIONAL": null }, "geometry": { "type": "Point", "coordinates": [ -113.565046629999983, 37.095605646000024 ] } },
{ "type": "Feature", "properties": { "OBJECTID": 916, "FACTYPE": null, "FACILITY_I": 0.0, "FACID": null, "NAME": "SOUTHERN UTAH WOMENS HEALTH CENTER, P.C.", "ADDRESS": "515 SOUTH 300 EAST, #200", "CITY": "ST GEORGE", "ZIP": "84770", "TELEPHONE": "4356281662", "TYPE": "URGENT CARE CLINIC", "COUNTY": "WASHINGTON", "TELEHEALTH": null, "FUNCTIONAL": null }, "geometry": { "type": "Point", "coordinates": [ -113.576248294999971, 37.099369840000065 ] } },
{ "type": "Feature", "properties": { "OBJECTID": 917, "FACTYPE": null, "FACILITY_I": 0.0, "FACID": null, "NAME": "INTERMOUNTAIN MEDICAL GROUP INSTACARE - HURRICANE VALLEY", "ADDRESS": "75 NORTH 2260 WEST", "CITY": "HURRICANE", "ZIP": "84737", "TELEPHONE": "4356356550", "TYPE": "URGENT CARE CLINIC", "COUNTY": "WASHINGTON", "TELEHEALTH": "YES", "FUNCTIONAL": null }, "geometry": { "type": "Point", "coordinates": [ -113.331122910999966, 37.177753704000054 ] } },
{ "type": "Feature", "properties": { "OBJECTID": 918, "FACTYPE": null, "FACILITY_I": 0.0, "FACID": null, "NAME": "INTERMOUNTAIN MEDICAL GROUP INSTACARE - SUNSET", "ADDRESS": "1739 WEST SUNSET BLVD", "CITY": "ST GEORGE", "ZIP": "84770", "TELEPHONE": "4356346050", "TYPE": "URGENT CARE CLINIC", "COUNTY": "WASHINGTON", "TELEHEALTH": null, "FUNCTIONAL": null }, "geometry": { "type": "Point", "coordinates": [ -113.620536795999953, 37.122119625000039 ] } },
{ "type": "Feature", "properties": { "OBJECTID": 919, "FACTYPE": null, "FACILITY_I": 0.0, "FACID": null, "NAME": "INTERMOUNTAIN MEDICAL GROUP INSTACARE - RIVER ROAD", "ADDRESS": "577 SOUTH RIVER ROAD", "CITY": "ST GEORGE", "ZIP": "84790", "TELEPHONE": "4356886300", "TYPE": "URGENT CARE CLINIC", "COUNTY": "WASHINGTON", "TELEHEALTH": null, "FUNCTIONAL": null }, "geometry": { "type": "Point", "coordinates": [ -113.555852233999985, 37.098300120000033 ] } },
{ "type": "Feature", "properties": { "OBJECTID": 920, "FACTYPE": null, "FACILITY_I": 0.0, "FACID": null, "NAME": "ENTERPRISE VALLEY MEDICAL", "ADDRESS": "223 SOUTH 200 EAST", "CITY": "ENTERPRISE", "ZIP": "84725", "TELEPHONE": "4358782281", "TYPE": "URGENT CARE CLINIC", "COUNTY": "WASHINGTON", "TELEHEALTH": "YES", "FUNCTIONAL": "ASSOCIATION OF UTAH COMMUNITY HEALTH (AUCH)" }, "geometry": { "type": "Point", "coordinates": [ -113.716300742999977, 37.569905157000051 ] } },
{ "type": "Feature", "properties": { "OBJECTID": 921, "FACTYPE": null, "FACILITY_I": 0.0, "FACID": null, "NAME": "WAYNE COMMUNITY HEALTH CENTER", "ADDRESS": "128 SOUTH 300 WEST", "CITY": "BICKNELL", "ZIP": "84715", "TELEPHONE": "4354253744", "TYPE": "URGENT CARE CLINIC", "COUNTY": "GARFIELD", "TELEHEALTH": "YES", "FUNCTIONAL": "ASSOCIATION OF UTAH COMMUNITY HEALTH (AUCH)" }, "geometry": { "type": "Point", "coordinates": [ -111.550051948999965, 38.338809248000075 ] } },
{ "type": "Feature", "properties": { "OBJECTID": 922, "FACTYPE": null, "FACILITY_I": 0.0, "FACID": null, "NAME": "MIDTOWN CHILDREN'S CLINIC", "ADDRESS": "425 EAST 5350 SOUTH, SUITE 355", "CITY": "OGDEN", "ZIP": "84405", "TELEPHONE": "8014757007", "TYPE": "URGENT CARE CLINIC", "COUNTY": "WEBER", "TELEHEALTH": null, "FUNCTIONAL": null }, "geometry": { "type": "Point", "coordinates": [ -111.971585388, 41.165717790000031 ] } },
{ "type": "Feature", "properties": { "OBJECTID": 923, "FACTYPE": null, "FACILITY_I": 0.0, "FACID": null, "NAME": "INTERMOUNTAIN MEDICAL GROUP INSTACARE - ROY", "ADDRESS": "1915 WEST 5950 SOUTH", "CITY": "ROY", "ZIP": "84067", "TELEPHONE": "8013878100", "TYPE": "URGENT CARE CLINIC", "COUNTY": "WEBER", "TELEHEALTH": null, "FUNCTIONAL": null }, "geometry": { "type": "Point", "coordinates": [ -112.02662257999998, 41.155356918000052 ] } },
{ "type": "Feature", "properties": { "OBJECTID": 924, "FACTYPE": null, "FACILITY_I": 0.0, "FACID": null, "NAME": "OGDEN CLINIC - HARRISON", "ADDRESS": "4650 HARRISON BLVD", "CITY": "OGDEN", "ZIP": "84403", "TELEPHONE": "8014794621", "TYPE": "URGENT CARE CLINIC", "COUNTY": "WEBER", "TELEHEALTH": null, "FUNCTIONAL": null }, "geometry": { "type": "Point", "coordinates": [ -111.948360842999989, 41.178946195000037 ] } },
{ "type": "Feature", "properties": { "OBJECTID": 925, "FACTYPE": null, "FACILITY_I": 0.0, "FACID": null, "NAME": "ODGEN CLINIC - CANYON VIEW", "ADDRESS": "1159 EAST 12TH ST", "CITY": "ODGEN", "ZIP": "84404", "TELEPHONE": "8014753700", "TYPE": "URGENT CARE CLINIC", "COUNTY": "WEBER", "TELEHEALTH": null, "FUNCTIONAL": null }, "geometry": { "type": "Point", "coordinates": [ -111.949616833, 41.24355352200007 ] } },
{ "type": "Feature", "properties": { "OBJECTID": 926, "FACTYPE": null, "FACILITY_I": 0.0, "FACID": null, "NAME": "INTERMOUNTAIN MEDICAL GROUP KIDS CARE - MCKAY-DEE OGDEN", "ADDRESS": "4403 HARRISON BLVD, SUITE 4875", "CITY": "OGDEN", "ZIP": "84403", "TELEPHONE": "8013874500", "TYPE": "URGENT CARE CLINIC", "COUNTY": "WEBER", "TELEHEALTH": null, "FUNCTIONAL": null }, "geometry": { "type": "Point", "coordinates": [ -111.953386408999961, 41.182613029000038 ] } },
{ "type": "Feature", "properties": { "OBJECTID": 927, "FACTYPE": null, "FACILITY_I": 0.0, "FACID": null, "NAME": "SOUTH OGDEN CENTER FOR FAMILY MEDICINE", "ADDRESS": "5740 CRESTWOOD DRIVE (1475 EAST)", "CITY": "SOUTH OGDEN", "ZIP": "84405", "TELEPHONE": "8014797771", "TYPE": "URGENT CARE CLINIC", "COUNTY": "WEBER", "TELEHEALTH": null, "FUNCTIONAL": null }, "geometry": { "type": "Point", "coordinates": [ -111.944332944999985, 41.157958667000059 ] } },
{ "type": "Feature", "properties": { "OBJECTID": 928, "FACTYPE": null, "FACILITY_I": 0.0, "FACID": null, "NAME": "INTERMOUNTAIN MEDICAL GROUP INSTACARE - SOUTH OGDEN", "ADDRESS": "975 EAST CHAMBERS ST", "CITY": "SOUTH OGDEN", "ZIP": "84403", "TELEPHONE": "8013876200", "TYPE": "URGENT CARE CLINIC", "COUNTY": "WEBER", "TELEHEALTH": null, "FUNCTIONAL": null }, "geometry": { "type": "Point", "coordinates": [ -111.953374307, 41.164478988000042 ] } },
{ "type": "Feature", "properties": { "OBJECTID": 929, "FACTYPE": null, "FACILITY_I": 0.0, "FACID": null, "NAME": "INTERMOUNTAIN MEDICAL GROUP INSTACARE - NORTH OGDEN", "ADDRESS": "2400 NORTH WASHINGTON BLVD", "CITY": "OGDEN", "ZIP": "84414", "TELEPHONE": "8013878300", "TYPE": "URGENT CARE CLINIC", "COUNTY": "WEBER", "TELEHEALTH": null, "FUNCTIONAL": null }, "geometry": { "type": "Point", "coordinates": [ -111.967727494999963, 41.300887974000034 ] } },
{ "type": "Feature", "properties": { "OBJECTID": 930, "FACTYPE": null, "FACILITY_I": 0.0, "FACID": null, "NAME": "INTERMOUNTAIN MEDICAL GROUP URGENT CARE - HIGHLAND", "ADDRESS": "10968 NORTH ALPINE HWY", "CITY": "HIGHLAND", "ZIP": "84003", "TELEPHONE": "8017632900", "TYPE": "URGENT CARE CLINIC", "COUNTY": "UTAH", "TELEHEALTH": null, "FUNCTIONAL": null }, "geometry": { "type": "Point", "coordinates": [ -111.784701174999952, 40.431456129000026 ] } },
{ "type": "Feature", "properties": { "OBJECTID": 931, "FACTYPE": null, "FACILITY_I": 0.0, "FACID": null, "NAME": "CANYON VIEW FAMILY PRACTICE", "ADDRESS": "15 EAST 400 NORTH", "CITY": "PAROWAN", "ZIP": "84761", "TELEPHONE": null, "TYPE": "CLINIC", "COUNTY": "IRON", "TELEHEALTH": "YES", "FUNCTIONAL": "INTERMOUNTAIN HELATH CARE" }, "geometry": { "type": "Point", "coordinates": [ -112.827387631999954, 37.84922518500008 ] } },
{ "type": "Feature", "properties": { "OBJECTID": 932, "FACTYPE": "011", "FACILITY_I": 0.0, "FACID": "UT460021", "NAME": "DIXIE REGIONAL MEDICAL CENTER 400 EAST CAMPUS", "ADDRESS": "544 SOUTH 400 EAST", "CITY": "ST GEORGE", "ZIP": "84060", "TELEPHONE": null, "TYPE": "HOSPITAL", "COUNTY": "WASHINGTON", "TELEHEALTH": "YES", "FUNCTIONAL": "INTERMOUNTAIN HEALTH CARE" }, "geometry": { "type": "Point", "coordinates": [ -113.575782641999979, 37.099024628000052 ] } },
{ "type": "Feature", "properties": { "OBJECTID": 933, "FACTYPE": null, "FACILITY_I": 0.0, "FACID": null, "NAME": "MANTI FAMILY CLINIC", "ADDRESS": "159 NORTH MAIN", "CITY": "MANTI", "ZIP": "84642", "TELEPHONE": null, "TYPE": "CLINIC", "COUNTY": "SANPETE", "TELEHEALTH": "YES", "FUNCTIONAL": null }, "geometry": { "type": "Point", "coordinates": [ -111.637369609999951, 39.267734508000046 ] } },
{ "type": "Feature", "properties": { "OBJECTID": 934, "FACTYPE": null, "FACILITY_I": 0.0, "FACID": null, "NAME": "OGDEN WORKMED", "ADDRESS": "1355 WEST 3400 SOUTH", "CITY": "OGDEN", "ZIP": "84401", "TELEPHONE": null, "TYPE": "CLINIC", "COUNTY": "WEBER", "TELEHEALTH": "YES", "FUNCTIONAL": null }, "geometry": { "type": "Point", "coordinates": [ -112.021549807999975, 41.200407892000044 ] } },
{ "type": "Feature", "properties": { "OBJECTID": 935, "FACTYPE": null, "FACILITY_I": 0.0, "FACID": null, "NAME": "RICHFIELD FAMILY PRACTICE", "ADDRESS": "460 NORTH MAIN", "CITY": "RICHFIELD", "ZIP": "84701", "TELEPHONE": null, "TYPE": "CLINIC", "COUNTY": "SEVIER", "TELEHEALTH": "YES", "FUNCTIONAL": "INTERMOUNTAIN HELATH CARE" }, "geometry": { "type": "Point", "coordinates": [ -112.084316203999947, 38.774553713000046 ] } },
{ "type": "Feature", "properties": { "OBJECTID": 936, "FACTYPE": null, "FACILITY_I": 0.0, "FACID": null, "NAME": "SOUTH CACHE VALLEY CLINIC", "ADDRESS": "191 SOUTH HIGHWAY 165", "CITY": "PROVIDENCE", "ZIP": "84332", "TELEPHONE": null, "TYPE": "CLINIC", "COUNTY": "CACHE", "TELEHEALTH": "YES", "FUNCTIONAL": null }, "geometry": { "type": "Point", "coordinates": [ -111.833973096999955, 41.704744362000042 ] } },
{ "type": "Feature", "properties": { "OBJECTID": 937, "FACTYPE": null, "FACILITY_I": 0.0, "FACID": null, "NAME": "SOUTHERN UTAH BEHAVIORAL HEALTH", "ADDRESS": "515 SOUTH 300 EAST SUITE 109", "CITY": "ST GEORGE", "ZIP": "84770", "TELEPHONE": null, "TYPE": "CLINIC", "COUNTY": "WASHINGTON", "TELEHEALTH": "YES", "FUNCTIONAL": null }, "geometry": { "type": "Point", "coordinates": [ -113.576248294999971, 37.099369840000065 ] } },
{ "type": "Feature", "properties": { "OBJECTID": 938, "FACTYPE": null, "FACILITY_I": 0.0, "FACID": null, "NAME": "SOUTHERN UTAH SURGICAL ASSOCIATES", "ADDRESS": "166 WEST 1325 NORTH #350", "CITY": "CEDAR CITY", "ZIP": "84720", "TELEPHONE": null, "TYPE": "CLINIC", "COUNTY": "IRON", "TELEHEALTH": "YES", "FUNCTIONAL": null }, "geometry": { "type": "Point", "coordinates": [ -113.064889798999957, 37.701278066000043 ] } },
{ "type": "Feature", "properties": { "OBJECTID": 939, "FACTYPE": null, "FACILITY_I": 0.0, "FACID": null, "NAME": "ST. GEORGE WORKMED", "ADDRESS": "385 NORTH 3050 EAST", "CITY": "ST GEORGE", "ZIP": "84790", "TELEPHONE": null, "TYPE": "CLINIC", "COUNTY": "WASHINGTON", "TELEHEALTH": "YES", "FUNCTIONAL": null }, "geometry": { "type": "Point", "coordinates": [ -113.521091475999981, 37.115218326000047 ] } },
{ "type": "Feature", "properties": { "OBJECTID": 940, "FACTYPE": null, "FACILITY_I": 0.0, "FACID": null, "NAME": "SUMMIT CLINIC (SMITHFIELD)", "ADDRESS": "502 SOUTH MAIN", "CITY": "SMITHFIELD", "ZIP": "84335", "TELEPHONE": null, "TYPE": "CLINIC", "COUNTY": "CACHE", "TELEHEALTH": "YES", "FUNCTIONAL": null }, "geometry": { "type": "Point", "coordinates": [ -111.832467428999962, 41.826114458000063 ] } },
{ "type": "Feature", "properties": { "OBJECTID": 941, "FACTYPE": null, "FACILITY_I": 0.0, "FACID": null, "NAME": "ALTAMONT MEDICAL CENTER", "ADDRESS": "15548 WEST 4000 NORTH", "CITY": "ALTAMONT", "ZIP": "84001", "TELEPHONE": null, "TYPE": "CLINIC", "COUNTY": "DUCHESNE", "TELEHEALTH": "YES", "FUNCTIONAL": null }, "geometry": { "type": "Point", "coordinates": [ -110.284990746999938, 40.359036270000047 ] } },
{ "type": "Feature", "properties": { "OBJECTID": 942, "FACTYPE": null, "FACILITY_I": 0.0, "FACID": null, "NAME": "BEAR LAKE COMMUNITY HEALTH CENTER", "ADDRESS": "325 WEST LOGAN HIGHWAY", "CITY": "GARDEN CITY", "ZIP": "84028", "TELEPHONE": null, "TYPE": "CLINIC", "COUNTY": "RICH", "TELEHEALTH": "YES", "FUNCTIONAL": "ASSOCIATION OF UTAH COMMUNITY HEALTH (AUCH)" }, "geometry": { "type": "Point", "coordinates": [ -111.40104636999996, 41.947123841000064 ] } },
{ "type": "Feature", "properties": { "OBJECTID": 943, "FACTYPE": null, "FACILITY_I": 0.0, "FACID": null, "NAME": "BLANDING FAMILY PRACTICE - INTERCONNECT", "ADDRESS": "799 SOUTH 200 WEST", "CITY": "BLANDING", "ZIP": "84511", "TELEPHONE": null, "TYPE": "CLINIC", "COUNTY": "SAN JUAN", "TELEHEALTH": "YES", "FUNCTIONAL": null }, "geometry": { "type": "Point", "coordinates": [ -109.481205602999978, 37.613836066000033 ] } },
{ "type": "Feature", "properties": { "OBJECTID": 945, "FACTYPE": null, "FACILITY_I": 0.0, "FACID": null, "NAME": "FOUNTAIN GREEN CLINIC", "ADDRESS": "275 WEST 300 SOUTH", "CITY": "FOUNTAIN GREEN", "ZIP": "84632", "TELEPHONE": null, "TYPE": "CLINIC", "COUNTY": "SANPETE", "TELEHEALTH": "YES", "FUNCTIONAL": null }, "geometry": { "type": "Point", "coordinates": [ -111.639534563999973, 39.623939877000055 ] } },
{ "type": "Feature", "properties": { "OBJECTID": 946, "FACTYPE": null, "FACILITY_I": 0.0, "FACID": null, "NAME": "MONTEZUMA CREEK COMMUNITY HEALTH CENTER", "ADDRESS": "EAST HIGHWAY 262", "CITY": "MONTEZUMA CREEK", "ZIP": "84534", "TELEPHONE": null, "TYPE": "CLINIC", "COUNTY": "SAN JUAN", "TELEHEALTH": "YES", "FUNCTIONAL": "ASSOCIATION OF UTAH COMMUNITY HEALTH (AUCH)" }, "geometry": { "type": "Point", "coordinates": [ -109.301237674, 37.259571099000027 ] } },
{ "type": "Feature", "properties": { "OBJECTID": 947, "FACTYPE": null, "FACILITY_I": 0.0, "FACID": null, "NAME": "MONUMENT VALLEY HEALTH CENTER", "ADDRESS": "30 WEST MEDICAL DRIVE", "CITY": "MONUMENT VALLEY", "ZIP": "84536", "TELEPHONE": null, "TYPE": "CLINIC", "COUNTY": "SAN JUAN", "TELEHEALTH": "YES", "FUNCTIONAL": "ASSOCIATION OF UTAH COMMUNITY HEALTH (AUCH)" }, "geometry": { "type": "Point", "coordinates": [ -110.185264158999985, 37.005501440000046 ] } },
{ "type": "Feature", "properties": { "OBJECTID": 948, "FACTYPE": null, "FACILITY_I": 0.0, "FACID": null, "NAME": "NAVAJO MOUNTAIN COMMUNITY HEALTH CLINIC", "ADDRESS": "2 RAINBOW ROAD", "CITY": "NAVAJO MOUNTAIN", "ZIP": "86044", "TELEPHONE": null, "TYPE": "CLINIC", "COUNTY": "SAN JUAN", "TELEHEALTH": "YES", "FUNCTIONAL": "ASSOCIATION OF UTAH COMMUNITY HEALTH (AUCH)" }, "geometry": { "type": "Point", "coordinates": [ -110.765854124999976, 37.062171072000069 ] } },
{ "type": "Feature", "properties": { "OBJECTID": 954, "FACTYPE": null, "FACILITY_I": 0.0, "FACID": null, "NAME": "SOUTHWEST UTAH COMMUNITY HEALTH CENTER", "ADDRESS": "168 NORTH 100 EAST, SUITE", "CITY": "ST GEORGE", "ZIP": "84770", "TELEPHONE": null, "TYPE": "CLINIC", "COUNTY": "WASHINGTON", "TELEHEALTH": "YES", "FUNCTIONAL": null }, "geometry": { "type": "Point", "coordinates": [ -113.580755752999949, 37.111007328000028 ] } },
{ "type": "Feature", "properties": { "OBJECTID": 961, "FACTYPE": null, "FACILITY_I": 0.0, "FACID": null, "NAME": "TABIONA MEDICAL CLINIC", "ADDRESS": "MAIN STREET", "CITY": "TABIONA", "ZIP": "84072", "TELEPHONE": null, "TYPE": "CLINIC", "COUNTY": "DUCHESNE", "TELEHEALTH": "YES", "FUNCTIONAL": null }, "geometry": { "type": "Point", "coordinates": [ -110.710684139999955, 40.352755118000061 ] } },
{ "type": "Feature", "properties": { "OBJECTID": 964, "FACTYPE": null, "FACILITY_I": 0.0, "FACID": null, "NAME": "SOUTH JORDAN HEALTH CENTER", "ADDRESS": "5126 WEST DAYBREAK PARKWAY", "CITY": "SOUTH JORDAN", "ZIP": "84095", "TELEPHONE": "8012134500", "TYPE": "CLINIC", "COUNTY": "SALT LAKE", "TELEHEALTH": "YES", "FUNCTIONAL": "UNIVERSITY HEALTH CARE" }, "geometry": { "type": "Point", "coordinates": [ -112.013233085999957, 40.541933062000055 ] } },
{ "type": "Feature", "properties": { "OBJECTID": 974, "FACTYPE": null, "FACILITY_I": 0.0, "FACID": null, "NAME": "WESTRIDGE HEALTH CENTER", "ADDRESS": "3730 WEST 4700 SOUTH", "CITY": "WEST VALLEY CITY", "ZIP": "84129", "TELEPHONE": null, "TYPE": "CLINIC", "COUNTY": "SALT LAKE", "TELEHEALTH": "YES", "FUNCTIONAL": "UNIVERSITY HEALTH CARE" }, "geometry": { "type": "Point", "coordinates": [ -111.979871681999953, 40.668441805000043 ] } },
{ "type": "Feature", "properties": { "OBJECTID": 975, "FACTYPE": null, "FACILITY_I": 0.0, "FACID": null, "NAME": "CENTERVILLE HEALTH CENTER", "ADDRESS": "26 SOUTH MAIN STREET", "CITY": "CENTERVILLE", "ZIP": "84014", "TELEPHONE": null, "TYPE": "CLINIC", "COUNTY": "DAVIS", "TELEHEALTH": "YES", "FUNCTIONAL": "UNIVERSITY HEALTH CARE" }, "geometry": { "type": "Point", "coordinates": [ -111.879616665999947, 40.917093556000054 ] } },
{ "type": "Feature", "properties": { "OBJECTID": 976, "FACTYPE": null, "FACILITY_I": 0.0, "FACID": null, "NAME": "PARKWAY HEALTH CENTER", "ADDRESS": "145 WEST UNIVERSITY PARKWAY", "CITY": "OREM", "ZIP": "84058", "TELEPHONE": null, "TYPE": "CLINIC", "COUNTY": "UTAH", "TELEHEALTH": "YES", "FUNCTIONAL": "UNIVERSITY HEALTH CARE" }, "geometry": { "type": "Point", "coordinates": [ -111.698778617999949, 40.272822503000043 ] } },
{ "type": "Feature", "properties": { "OBJECTID": 977, "FACTYPE": null, "FACILITY_I": 0.0, "FACID": null, "NAME": "REDSTONE HEALTH CENTER", "ADDRESS": "1743 WEST REDSTONE CENTER DRIVE", "CITY": "PARK CITY", "ZIP": "84098", "TELEPHONE": null, "TYPE": "CLINIC", "COUNTY": "SUMMIT", "TELEHEALTH": "YES", "FUNCTIONAL": "UNIVERSITY HEALTH CARE" }, "geometry": { "type": "Point", "coordinates": [ -111.543358573999967, 40.720749926000053 ] } },
{ "type": "Feature", "properties": { "OBJECTID": 978, "FACTYPE": null, "FACILITY_I": 0.0, "FACID": null, "NAME": "STANSBURY HEALTH CENTER", "ADDRESS": "220 MILLPOND ROAD", "CITY": "STANSBURY", "ZIP": "84074", "TELEPHONE": null, "TYPE": "CLINIC", "COUNTY": "TOOELE", "TELEHEALTH": "YES", "FUNCTIONAL": "UNIVERSITY HEALTH CARE" }, "geometry": { "type": "Point", "coordinates": [ -112.289068854999982, 40.644853588000046 ] } },
{ "type": "Feature", "properties": { "OBJECTID": 979, "FACTYPE": null, "FACILITY_I": 0.0, "FACID": null, "NAME": "SUGAR HOUSE HEALTH CENTER", "ADDRESS": "1138 EAST WILMINGTON AVENUE", "CITY": "SALT LAKE CITY", "ZIP": "84106", "TELEPHONE": null, "TYPE": "CLINIC", "COUNTY": "SALT LAKE", "TELEHEALTH": "YES", "FUNCTIONAL": "UNIVERSITY HEALTH CARE" }, "geometry": { "type": "Point", "coordinates": [ -111.858414591999974, 40.72315551500003 ] } },
{ "type": "Feature", "properties": { "OBJECTID": 980, "FACTYPE": "011", "FACILITY_I": 0.0, "FACID": null, "NAME": "VETERANS ADMINISTRATION MEDICAL CENTER", "ADDRESS": "500 FOOTHILL DRIVE", "CITY": "SALT LAKE CITY", "ZIP": "84148", "TELEPHONE": "8015821565", "TYPE": "HOSPITAL", "COUNTY": "SALT LAKE", "TELEHEALTH": null, "FUNCTIONAL": null }, "geometry": { "type": "Point", "coordinates": [ -111.840682567999977, 40.757220329000063 ] } },
{ "type": "Feature", "properties": { "OBJECTID": 987, "FACTYPE": null, "FACILITY_I": 0.0, "FACID": null, "NAME": "MONUMENT VALLEY HEALTH CARE CENTER", "ADDRESS": "P.O. Box 360-005", "CITY": "MONUMENT VALLEY", "ZIP": "84536", "TELEPHONE": "4357273242", "TYPE": "CLINIC", "COUNTY": "SAN JUAN", "TELEHEALTH": null, "FUNCTIONAL": "ASSOCIATION OF UTAH COMMUNITY HEALTH (AUCH)" }, "geometry": { "type": "Point", "coordinates": [ -110.210508962999938, 37.008193952000056 ] } },
{ "type": "Feature", "properties": { "OBJECTID": 990, "FACTYPE": null, "FACILITY_I": 0.0, "FACID": null, "NAME": "SALINA MEDICAL CLINIC", "ADDRESS": "310 WEST MAIN STREET", "CITY": "SALINA", "ZIP": "84654", "TELEPHONE": "4355297411", "TYPE": "CLINIC", "COUNTY": "SEVIER", "TELEHEALTH": null, "FUNCTIONAL": "RURAL" }, "geometry": { "type": "Point", "coordinates": [ -111.865794318999974, 38.957868241000028 ] } },
{ "type": "Feature", "properties": { "OBJECTID": 995, "FACTYPE": null, "FACILITY_I": 0.0, "FACID": null, "NAME": "UINTAH AND OURAY HEALTH CENTER", "ADDRESS": "P.O. Box 160", "CITY": "FORT DUCHESNE", "ZIP": "84026", "TELEPHONE": "4357225122", "TYPE": "CLINIC", "COUNTY": "UINTAH", "TELEHEALTH": null, "FUNCTIONAL": "RURAL" }, "geometry": { "type": "Point", "coordinates": [ -109.855342807999989, 40.288978279000048 ] } },
{ "type": "Feature", "properties": { "OBJECTID": 998, "FACTYPE": null, "FACILITY_I": 0.0, "FACID": null, "NAME": "ZION CANYON MEDICAL CLINIC", "ADDRESS": "120 LION BLVD", "CITY": "SPRINGDALE", "ZIP": "84767", "TELEPHONE": "4357223226", "TYPE": "CLINIC", "COUNTY": "WASHINGTON", "TELEHEALTH": null, "FUNCTIONAL": "RURAL" }, "geometry": { "type": "Point", "coordinates": [ -112.999382553999965, 37.196773911000037 ] } },
{ "type": "Feature", "properties": { "OBJECTID": 999, "FACTYPE": null, "FACILITY_I": 0.0, "FACID": null, "NAME": "ASHLEY FAMILY CLINIC", "ADDRESS": "44 SOUTH 100 WEST", "CITY": "VERNAL", "ZIP": "84078", "TELEPHONE": "4357818000", "TYPE": "CLINIC", "COUNTY": "UINTAH", "TELEHEALTH": null, "FUNCTIONAL": "RURAL" }, "geometry": { "type": "Point", "coordinates": [ -109.530666156999985, 40.454987558000028 ] } },
{ "type": "Feature", "properties": { "OBJECTID": 1000, "FACTYPE": null, "FACILITY_I": 0.0, "FACID": null, "NAME": "BRIAN HEAD CLINIC", "ADDRESS": "HIGHWAY 143", "CITY": "BRIAN HEAD", "ZIP": "84719", "TELEPHONE": "4356772700", "TYPE": "CLINIC", "COUNTY": "IRON", "TELEHEALTH": null, "FUNCTIONAL": "RURAL" }, "geometry": { "type": "Point", "coordinates": [ -112.850001300999963, 37.705305448000047 ] } },
{ "type": "Feature", "properties": { "OBJECTID": 1001, "FACTYPE": null, "FACILITY_I": 0.0, "FACID": null, "NAME": "DINOSAUR LAND PEDIATRICS", "ADDRESS": "175 NORTH 100 WEST", "CITY": "VERNAL", "ZIP": "84078", "TELEPHONE": "4357899060", "TYPE": "CLINIC", "COUNTY": "UINTAH", "TELEHEALTH": null, "FUNCTIONAL": "RURAL" }, "geometry": { "type": "Point", "coordinates": [ -109.530787098999951, 40.458080944000073 ] } },
{ "type": "Feature", "properties": { "OBJECTID": 1002, "FACTYPE": null, "FACILITY_I": 0.0, "FACID": null, "NAME": "FLAMING GORGE HEALTH CENTER", "ADDRESS": "96 N 1ST WEST", "CITY": "MANILA", "ZIP": "84046", "TELEPHONE": "4357843575", "TYPE": "CLINIC", "COUNTY": "DAGGETT", "TELEHEALTH": null, "FUNCTIONAL": "RURAL" }, "geometry": { "type": "Point", "coordinates": [ -109.725324135999983, 40.989802616000077 ] } },
{ "type": "Feature", "properties": { "OBJECTID": 1003, "FACTYPE": null, "FACILITY_I": 0.0, "FACID": null, "NAME": "CENTRAL CITY COMMUNITY HEALTH CENTER", "ADDRESS": "461 SOUTH 400 EAST", "CITY": "SALT LAKE", "ZIP": "84111", "TELEPHONE": "8015398634", "TYPE": "CLINIC", "COUNTY": "SALT LAKE", "TELEHEALTH": null, "FUNCTIONAL": "ASSOCIATION OF UTAH COMMUNITY HEALTH (AUCH)" }, "geometry": { "type": "Point", "coordinates": [ -111.879183127999966, 40.759020887000077 ] } },
{ "type": "Feature", "properties": { "OBJECTID": 1004, "FACTYPE": null, "FACILITY_I": 0.0, "FACID": null, "NAME": "COPPERVIEW COMMUNITY HEALTH CENTER", "ADDRESS": "8446 SOUTH HARRISON STREET", "CITY": "MIDVALE", "ZIP": "84047", "TELEPHONE": "8015665494", "TYPE": "CLINIC", "COUNTY": "SALT LAKE", "TELEHEALTH": null, "FUNCTIONAL": "ASSOCIATION OF UTAH COMMUNITY HEALTH (AUCH)" }, "geometry": { "type": "Point", "coordinates": [ -111.900880471999983, 40.598047527000062 ] } },
{ "type": "Feature", "properties": { "OBJECTID": 1010, "FACTYPE": null, "FACILITY_I": 0.0, "FACID": null, "NAME": "MIDTOWN COMMUNITY HEALTH CENTER", "ADDRESS": "670 28TH STREET", "CITY": "OGDEN", "ZIP": "84403", "TELEPHONE": "8013935355", "TYPE": "CLINIC", "COUNTY": "WEBER", "TELEHEALTH": null, "FUNCTIONAL": "ASSOCIATION OF UTAH COMMUNITY HEALTH (AUCH)" }, "geometry": { "type": "Point", "coordinates": [ -111.96266716699995, 41.214494270000046 ] } },
{ "type": "Feature", "properties": { "OBJECTID": 1011, "FACTYPE": null, "FACILITY_I": 0.0, "FACID": null, "NAME": "MONTAINLANDS COMMUNITY HEALTH CENTER", "ADDRESS": "215 WEST 100 NORTH", "CITY": "PROVO", "ZIP": "84601", "TELEPHONE": "8014292020", "TYPE": "CLINIC", "COUNTY": "UTAH", "TELEHEALTH": null, "FUNCTIONAL": "ASSOCIATION OF UTAH COMMUNITY HEALTH (AUCH)" }, "geometry": { "type": "Point", "coordinates": [ -111.662517402, 40.234855533000029 ] } },
{ "type": "Feature", "properties": { "OBJECTID": 1012, "FACTYPE": null, "FACILITY_I": 0.0, "FACID": null, "NAME": "OQUIRRH VIEW COMMUNITY HEALTH CENTER", "ADDRESS": "4745 SOUTH 3200 WEST", "CITY": "SALT LAKE", "ZIP": "84118", "TELEPHONE": "8019646214", "TYPE": "CLINIC", "COUNTY": "SALT LAKE", "TELEHEALTH": null, "FUNCTIONAL": "ASSOCIATION OF UTAH COMMUNITY HEALTH (AUCH)" }, "geometry": { "type": "Point", "coordinates": [ -111.967042236999987, 40.666657727000029 ] } },
{ "type": "Feature", "properties": { "OBJECTID": 1013, "FACTYPE": null, "FACILITY_I": 0.0, "FACID": null, "NAME": "STEPHEN D. RATCLIFFE COMMUNITY HEALTH CENTER", "ADDRESS": "1365 WEST 1000 NORTH", "CITY": "SALT LAKE", "ZIP": "84116", "TELEPHONE": "8013285750", "TYPE": "CLINIC", "COUNTY": "SALT LAKE", "TELEHEALTH": null, "FUNCTIONAL": "ASSOCIATION OF UTAH COMMUNITY HEALTH (AUCH)" }, "geometry": { "type": "Point", "coordinates": [ -111.930577476999986, 40.790566971000032 ] } },
{ "type": "Feature", "properties": { "OBJECTID": 1020, "FACTYPE": null, "FACILITY_I": 0.0, "FACID": null, "NAME": "PAYSON FAMILY HEALTH CENTER", "ADDRESS": "910 EAST 100 NORTH", "CITY": "PAYSON", "ZIP": "84651", "TELEPHONE": null, "TYPE": "CLINIC", "COUNTY": "UTAH", "TELEHEALTH": null, "FUNCTIONAL": "ASSOCIATION OF UTAH COMMUNITY HEALTH (AUCH)" }, "geometry": { "type": "Point", "coordinates": [ -111.717044444999942, 40.045058076000032 ] } },
{ "type": "Feature", "properties": { "OBJECTID": 1022, "FACTYPE": null, "FACILITY_I": 0.0, "FACID": null, "NAME": "WELPERT PEDIATRIC", "ADDRESS": "476 WEST 50 NORTH", "CITY": "AMERICAN FORK", "ZIP": "84003", "TELEPHONE": null, "TYPE": "CLINIC", "COUNTY": "UTAH", "TELEHEALTH": null, "FUNCTIONAL": "INTERMOUNTAIN HEALTHCARE" }, "geometry": { "type": "Point", "coordinates": [ -111.811325440999951, 40.378089542000055 ] } },
{ "type": "Feature", "properties": { "OBJECTID": 1023, "FACTYPE": null, "FACILITY_I": 0.0, "FACID": null, "NAME": "KIDSCARE / INSTACARE", "ADDRESS": "214 WEST 1500 SOUTH", "CITY": "BOUNTIFUL", "ZIP": "84010", "TELEPHONE": null, "TYPE": "CLINIC", "COUNTY": "DAVIS", "TELEHEALTH": null, "FUNCTIONAL": "INTERMOUNTAIN HEALTH CARE" }, "geometry": { "type": "Point", "coordinates": [ -111.88651220099996, 40.875007550000078 ] } },
{ "type": "Feature", "properties": { "OBJECTID": 1024, "FACTYPE": null, "FACILITY_I": 0.0, "FACID": null, "NAME": "BRIGHAM CITY CLINIC", "ADDRESS": "980 SOUTH MEDICAL DRIVE", "CITY": "BRIGHAM CITY", "ZIP": "84302", "TELEPHONE": null, "TYPE": "CLINIC", "COUNTY": "BOX ELDER", "TELEHEALTH": null, "FUNCTIONAL": "INTERMOUNTAIN HEALTH CARE" }, "geometry": { "type": "Point", "coordinates": [ -112.025754671999948, 41.490879322000069 ] } },
{ "type": "Feature", "properties": { "OBJECTID": 1025, "FACTYPE": null, "FACILITY_I": 0.0, "FACID": null, "NAME": "EPHRAIM HEALTH CENTER", "ADDRESS": "525 NORTH MAIN", "CITY": "EPHRAIM", "ZIP": "84627", "TELEPHONE": null, "TYPE": "CLINIC", "COUNTY": "SANPETE", "TELEHEALTH": null, "FUNCTIONAL": "INTERMOUNTAIN HEALTHCARE" }, "geometry": { "type": "Point", "coordinates": [ -111.587576660999957, 39.373100953000062 ] } },
{ "type": "Feature", "properties": { "OBJECTID": 1026, "FACTYPE": null, "FACILITY_I": 0.0, "FACID": null, "NAME": "HURRICANE HEALTH CENTER", "ADDRESS": "90 SOUTH 700 WEST", "CITY": "HURRICANE", "ZIP": "84737", "TELEPHONE": null, "TYPE": "CLINIC", "COUNTY": "WASHINGTON", "TELEHEALTH": null, "FUNCTIONAL": "INTERMOUNTAIN HEALTHCARE" }, "geometry": { "type": "Point", "coordinates": [ -113.300995068999953, 37.17550514900006 ] } },
{ "type": "Feature", "properties": { "OBJECTID": 1027, "FACTYPE": null, "FACILITY_I": 0.0, "FACID": null, "NAME": "NORTH CANYON FAMILY PRACTICE", "ADDRESS": "3200 NORTH CANYON ROAD", "CITY": "PROVO", "ZIP": "84604", "TELEPHONE": null, "TYPE": "CLINIC", "COUNTY": "UTAH", "TELEHEALTH": null, "FUNCTIONAL": "INTERMOUNTAIN HEALTHCARE" }, "geometry": { "type": "Point", "coordinates": [ -111.651094815999954, 40.275856040000065 ] } },
{ "type": "Feature", "properties": { "OBJECTID": 1028, "FACTYPE": null, "FACILITY_I": 0.0, "FACID": null, "NAME": "SALINA FAMILY PRACTICE", "ADDRESS": "310 WEST MAIN STREET", "CITY": "SALINA", "ZIP": "84654", "TELEPHONE": null, "TYPE": "CLINIC", "COUNTY": "SEVIER", "TELEHEALTH": null, "FUNCTIONAL": "INTERMOUNTAIN HEALTHCARE" }, "geometry": { "type": "Point", "coordinates": [ -111.865794318999974, 38.957868241000028 ] } },
{ "type": "Feature", "properties": { "OBJECTID": 1029, "FACTYPE": null, "FACILITY_I": 0.0, "FACID": null, "NAME": "FOOTHILL VILLAGE FAMILY PRACTICE", "ADDRESS": "1400 FOOTHILL DRIVE", "CITY": "SALT LAKE", "ZIP": "84108", "TELEPHONE": null, "TYPE": "CLINIC", "COUNTY": "SALT LAKE", "TELEHEALTH": null, "FUNCTIONAL": "INTERMOUNTAIN HEALTHCARE" }, "geometry": { "type": "Point", "coordinates": [ -111.826954924999939, 40.739522153000053 ] } },
{ "type": "Feature", "properties": { "OBJECTID": 1030, "FACTYPE": null, "FACILITY_I": 0.0, "FACID": null, "NAME": "HOLLADAY HEALTH CENTER", "ADDRESS": "1955 EAST 5600 SOUTH", "CITY": "SALT LAKE", "ZIP": "84121", "TELEPHONE": null, "TYPE": "CLINIC", "COUNTY": "SALT LAKE", "TELEHEALTH": null, "FUNCTIONAL": "INTERMOUNTAIN HEALTHCARE" }, "geometry": { "type": "Point", "coordinates": [ -111.835478218, 40.649798261000058 ] } },
{ "type": "Feature", "properties": { "OBJECTID": 1031, "FACTYPE": null, "FACILITY_I": 0.0, "FACID": null, "NAME": "SALT LAKE CLINIC", "ADDRESS": "333 SOUTH 900 EAST", "CITY": "SALT LAKE", "ZIP": "84102", "TELEPHONE": null, "TYPE": "CLINIC", "COUNTY": "SALT LAKE", "TELEHEALTH": null, "FUNCTIONAL": "INTERMOUNTAIN HEALTHCARE" }, "geometry": { "type": "Point", "coordinates": [ -111.864832183999965, 40.762071668000033 ] } },
{ "type": "Feature", "properties": { "OBJECTID": 1032, "FACTYPE": null, "FACILITY_I": 0.0, "FACID": null, "NAME": "COTTONWOOD FAMILY PRACTICE", "ADDRESS": "5872 SOUTH 900 EAST", "CITY": "SALT LAKE", "ZIP": "84121", "TELEPHONE": null, "TYPE": "CLINIC", "COUNTY": "SALT LAKE", "TELEHEALTH": null, "FUNCTIONAL": "INTERMOUNTAIN HEALTHCARE" }, "geometry": { "type": "Point", "coordinates": [ -111.866348852999977, 40.643464536000067 ] } },
{ "type": "Feature", "properties": { "OBJECTID": 1033, "FACTYPE": null, "FACILITY_I": 0.0, "FACID": null, "NAME": "SOUTH SANDY HEALTH CENTER", "ADDRESS": "955 EAST 11400 SOUTH", "CITY": "SANDY", "ZIP": "84094", "TELEPHONE": null, "TYPE": "CLINIC", "COUNTY": "SALT LAKE", "TELEHEALTH": null, "FUNCTIONAL": "INTERMOUNTAIN HEALTHCARE" }, "geometry": { "type": "Point", "coordinates": [ -111.863639297999953, 40.544719927000074 ] } },
{ "type": "Feature", "properties": { "OBJECTID": 1034, "FACTYPE": null, "FACILITY_I": 0.0, "FACID": null, "NAME": "SOUTH JORDAN FAMILY PRACTICE", "ADDRESS": "11444 SOUTH REDWOOD ROAD", "CITY": "SOUTH JORDAN", "ZIP": "84095", "TELEPHONE": null, "TYPE": "CLINIC", "COUNTY": "SALT LAKE", "TELEHEALTH": null, "FUNCTIONAL": "INTERMOUNTAIN HEALTHCARE" }, "geometry": { "type": "Point", "coordinates": [ -111.939367493999953, 40.543725246000065 ] } },
{ "type": "Feature", "properties": { "OBJECTID": 1035, "FACTYPE": null, "FACILITY_I": 0.0, "FACID": null, "NAME": "ORTHO SPECIALTY - SAMUELSON", "ADDRESS": "301 NORTH 200 EAST", "CITY": "SAINT GEORGE", "ZIP": "84770", "TELEPHONE": null, "TYPE": "CLINIC", "COUNTY": "WASHINGTON", "TELEHEALTH": null, "FUNCTIONAL": "INTERMOUNTAIN HEALTHCARE" }, "geometry": { "type": "Point", "coordinates": [ -113.579448324999987, 37.113449777000028 ] } },
{ "type": "Feature", "properties": { "OBJECTID": 1036, "FACTYPE": null, "FACILITY_I": 0.0, "FACID": null, "NAME": "SOUTH JORDAN HEALTH CENTER - PLANNED PARENTHOOD", "ADDRESS": "1091 WEST SOUTH JORDAN PARKWAY", "CITY": "SOUTH JORDAN", "ZIP": "84095", "TELEPHONE": null, "TYPE": "CLINIC", "COUNTY": "SALT LAKE", "TELEHEALTH": null, "FUNCTIONAL": "PLANNED PARENTHOOD" }, "geometry": { "type": "Point", "coordinates": [ -111.921239492999973, 40.559892036000065 ] } },
{ "type": "Feature", "properties": { "OBJECTID": 1037, "FACTYPE": null, "FACILITY_I": 0.0, "FACID": null, "NAME": "ORDERVILLE CLINIC", "ADDRESS": "425 E STATE ST", "CITY": "ORDERVILLE", "ZIP": "84758", "TELEPHONE": null, "TYPE": "CLINIC", "COUNTY": "KANE", "TELEHEALTH": null, "FUNCTIONAL": null }, "geometry": { "type": "Point", "coordinates": [ -112.630630555999971, 37.277151064000066 ] } },
{ "type": "Feature", "properties": { "OBJECTID": 1039, "FACTYPE": null, "FACILITY_I": 0.0, "FACID": null, "NAME": "CACHE VALLEY COMMUNITY HEALTH CENTER", "ADDRESS": "550 EAST 1400 NORTH, SUITE K", "CITY": "LOGAN", "ZIP": "84341", "TELEPHONE": null, "TYPE": "CLINIC", "COUNTY": "CACHE", "TELEHEALTH": null, "FUNCTIONAL": "ASSOCIATION OF UTAH COMMUNITY HEALTH (AUCH)" }, "geometry": { "type": "Point", "coordinates": [ -111.820899222999969, 41.756779171000062 ] } },
{ "type": "Feature", "properties": { "OBJECTID": 1040, "FACTYPE": null, "FACILITY_I": 0.0, "FACID": null, "NAME": "CACHE VALLEY COMMUNITY HEALTH CENTER SOUTH", "ADDRESS": "26 W MAIN ST SUITE 3A", "CITY": "HYRUM", "ZIP": "84319", "TELEPHONE": null, "TYPE": "CLINIC", "COUNTY": "CACHE", "TELEHEALTH": null, "FUNCTIONAL": "ASSOCIATION OF UTAH COMMUNITY HEALTH (AUCH)" }, "geometry": { "type": "Point", "coordinates": [ -111.85598265699997, 41.633938357000034 ] } },
{ "type": "Feature", "properties": { "OBJECTID": 1041, "FACTYPE": null, "FACILITY_I": 0.0, "FACID": null, "NAME": "CLINICA DE BUENA SALUD", "ADDRESS": "14 N 100 E STE 2", "CITY": "BRIGHAM CITY", "ZIP": "84302", "TELEPHONE": null, "TYPE": "CLINIC", "COUNTY": "BOX ELDER", "TELEHEALTH": null, "FUNCTIONAL": "ASSOCIATION OF UTAH COMMUNITY HEALTH (AUCH)" }, "geometry": { "type": "Point", "coordinates": [ -112.014015178999955, 41.510849160000078 ] } },
{ "type": "Feature", "properties": { "OBJECTID": 1042, "FACTYPE": null, "FACILITY_I": 0.0, "FACID": null, "NAME": "WEBER WELLNESS CLINIC", "ADDRESS": "237 26TH ST", "CITY": "OGDEN", "ZIP": "84401", "TELEPHONE": null, "TYPE": "CLINIC", "COUNTY": "WEBER", "TELEHEALTH": null, "FUNCTIONAL": "ASSOCIATION OF UTAH COMMUNITY HEALTH (AUCH)" }, "geometry": { "type": "Point", "coordinates": [ -111.975496392999958, 41.218406358000038 ] } },
{ "type": "Feature", "properties": { "OBJECTID": 1043, "FACTYPE": null, "FACILITY_I": 0.0, "FACID": null, "NAME": "WEBER MEDICAL AND DENTAL CLINIC", "ADDRESS": "2240 ADAMS AVE", "CITY": "OGDEN", "ZIP": "84401", "TELEPHONE": null, "TYPE": "CLINIC", "COUNTY": "WEBER", "TELEHEALTH": null, "FUNCTIONAL": "ASSOCIATION OF UTAH COMMUNITY HEALTH (AUCH)" }, "geometry": { "type": "Point", "coordinates": [ -111.967358582999964, 41.226031228000068 ] } },
{ "type": "Feature", "properties": { "OBJECTID": 1044, "FACTYPE": null, "FACILITY_I": 0.0, "FACID": null, "NAME": "JAMES MADISON ELEMENTARY HEALTH CENTER", "ADDRESS": "781 25TH ST", "CITY": "OGDEN", "ZIP": "84401", "TELEPHONE": null, "TYPE": "CLINIC", "COUNTY": "WEBER", "TELEHEALTH": null, "FUNCTIONAL": "ASSOCIATION OF UTAH COMMUNITY HEALTH (AUCH)" }, "geometry": { "type": "Point", "coordinates": [ -111.960020109999959, 41.219330010000078 ] } },
{ "type": "Feature", "properties": { "OBJECTID": 1045, "FACTYPE": null, "FACILITY_I": 0.0, "FACID": null, "NAME": "WEBER CHILDREN'S CLINIC", "ADDRESS": "5285 S 400 E, SUITE A", "CITY": "WASHINGTON TERRACE", "ZIP": "84405", "TELEPHONE": null, "TYPE": "CLINIC", "COUNTY": "WEBER", "TELEHEALTH": null, "FUNCTIONAL": "ASSOCIATION OF UTAH COMMUNITY HEALTH (AUCH)" }, "geometry": { "type": "Point", "coordinates": [ -111.971082023999941, 41.168254218000072 ] } },
{ "type": "Feature", "properties": { "OBJECTID": 1046, "FACTYPE": null, "FACILITY_I": 0.0, "FACID": null, "NAME": "DAVIS MEDICAL AND DENTAL CLINIC", "ADDRESS": "22 SOUTH STATE STREET SUITE 107", "CITY": "CLEARFIELD", "ZIP": "84015", "TELEPHONE": null, "TYPE": "CLINIC", "COUNTY": "DAVIS", "TELEHEALTH": null, "FUNCTIONAL": "ASSOCIATION OF UTAH COMMUNITY HEALTH (AUCH)" }, "geometry": { "type": "Point", "coordinates": [ -112.025679848999971, 41.113282437000066 ] } },
{ "type": "Feature", "properties": { "OBJECTID": 1047, "FACTYPE": null, "FACILITY_I": 0.0, "FACID": null, "NAME": "CANYON HEIGHTS", "ADDRESS": "525 DATC DRIVE", "CITY": "KAYSVILLE", "ZIP": "84037", "TELEPHONE": null, "TYPE": "CLINIC", "COUNTY": "DAVIS", "TELEHEALTH": null, "FUNCTIONAL": "ASSOCIATION OF UTAH COMMUNITY HEALTH (AUCH)" }, "geometry": { "type": "Point", "coordinates": [ -111.925598924999974, 41.026762647000055 ] } },
{ "type": "Feature", "properties": { "OBJECTID": 1048, "FACTYPE": null, "FACILITY_I": 0.0, "FACID": null, "NAME": "72ND ST CLINIC", "ADDRESS": "220 WEST 7200 SOUTH", "CITY": "MIDVALE", "ZIP": "84047", "TELEPHONE": null, "TYPE": "CLINIC", "COUNTY": "SALT LAKE", "TELEHEALTH": null, "FUNCTIONAL": "ASSOCIATION OF UTAH COMMUNITY HEALTH (AUCH)" }, "geometry": { "type": "Point", "coordinates": [ -111.899234432999947, 40.62102266900007 ] } },
{ "type": "Feature", "properties": { "OBJECTID": 1049, "FACTYPE": null, "FACILITY_I": 0.0, "FACID": null, "NAME": "WAYNE COMMUNITY HEALTH CENTER HANKSVILLE", "ADDRESS": "30 S HIGHWAY 95", "CITY": "HANKSVILLE", "ZIP": "84734", "TELEPHONE": null, "TYPE": "CLINIC", "COUNTY": "GARFIELD", "TELEHEALTH": null, "FUNCTIONAL": "ASSOCIATION OF UTAH COMMUNITY HEALTH (AUCH)" }, "geometry": { "type": "Point", "coordinates": [ -110.704215007999949, 38.372398935000035 ] } },
{ "type": "Feature", "properties": { "OBJECTID": 1050, "FACTYPE": null, "FACILITY_I": 0.0, "FACID": null, "NAME": "BLANDING FAMILY PRACTICE", "ADDRESS": "802 S 200 W", "CITY": "BLANDING", "ZIP": "84511", "TELEPHONE": null, "TYPE": "CLINIC", "COUNTY": "SAN JUAN", "TELEHEALTH": null, "FUNCTIONAL": "ASSOCIATION OF UTAH COMMUNITY HEALTH (AUCH)" }, "geometry": { "type": "Point", "coordinates": [ -109.474358500999983, 37.615593969000031 ] } },
{ "type": "Feature", "properties": { "OBJECTID": 1051, "FACTYPE": null, "FACILITY_I": 0.0, "FACID": null, "NAME": "FAMILY HEALTHCARE CEDAR CITY", "ADDRESS": "74 WEST HARDING AVE", "CITY": "CEDAR CITY", "ZIP": "84720", "TELEPHONE": null, "TYPE": "CLINIC", "COUNTY": "IRON", "TELEHEALTH": null, "FUNCTIONAL": "ASSOCIATION OF UTAH COMMUNITY HEALTH (AUCH)" }, "geometry": { "type": "Point", "coordinates": [ -113.062983330999941, 37.678683139000043 ] } },
{ "type": "Feature", "properties": { "OBJECTID": 1052, "FACTYPE": null, "FACILITY_I": 0.0, "FACID": null, "NAME": "FAMILY HEALTHCARE ST. GEORGE", "ADDRESS": "25 NORTH 100 EAST", "CITY": "ST. GEORGE", "ZIP": "84770", "TELEPHONE": null, "TYPE": "CLINIC", "COUNTY": "WASHINGTON", "TELEHEALTH": null, "FUNCTIONAL": "ASSOCIATION OF UTAH COMMUNITY HEALTH (AUCH)" }, "geometry": { "type": "Point", "coordinates": [ -113.581364703999952, 37.108601533000069 ] } },
{ "type": "Feature", "properties": { "OBJECTID": 1053, "FACTYPE": null, "FACILITY_I": 0.0, "FACID": null, "NAME": "FAMILY HEALTHCARE MILLCREEK", "ADDRESS": "2410 E RIVERSIDE DR", "CITY": "ST. GEORGE", "ZIP": "84790", "TELEPHONE": null, "TYPE": "CLINIC", "COUNTY": "WASHINGTON", "TELEHEALTH": null, "FUNCTIONAL": "ASSOCIATION OF UTAH COMMUNITY HEALTH (AUCH)" }, "geometry": { "type": "Point", "coordinates": [ -113.53219616399997, 37.102664582000045 ] } },
{ "type": "Feature", "properties": { "OBJECTID": 1083, "FACTYPE": "011", "FACILITY_I": 0.0, "FACID": "UT000594\r\n", "NAME": "LONE PEAK HOSPITAL", "ADDRESS": "11925 S STATE STREET", "CITY": "DRAPER", "ZIP": "84020", "TELEPHONE": "8015458000", "TYPE": "HOSPITAL", "COUNTY": "SALT LAKE", "TELEHEALTH": null, "FUNCTIONAL": "MOUNTAINSTAR HEALTH CARE" }, "geometry": { "type": "Point", "coordinates": [ -111.889045418999956, 40.536045351000041 ] } },
{ "type": "Feature", "properties": { "OBJECTID": 1084, "FACTYPE": "011", "FACILITY_I": 0.0, "FACID": "UT000688", "NAME": "MOUNTAIN POINT MEDICAL CENTER", "ADDRESS": "3000 NORTH TRIUMPH BLVD", "CITY": "LEHI", "ZIP": "84043", "TELEPHONE": "3853453000", "TYPE": "HOSPITAL", "COUNTY": "UTAH", "TELEHEALTH": null, "FUNCTIONAL": "STEWARD HEALTH CARE" }, "geometry": { "type": "Point", "coordinates": [ -111.879121221, 40.425441921000072 ] } },
{ "type": "Feature", "properties": { "OBJECTID": 1085, "FACTYPE": "015", "FACILITY_I": 0.0, "FACID": "UT000656", "NAME": "LANDMARK HOSPITAL OF SALT LAKE CITY", "ADDRESS": "4252 S BIRKHILL BLVD", "CITY": "MURRAY", "ZIP": "84107", "TELEPHONE": "8012685400", "TYPE": "HOSPITAL", "COUNTY": "SALT LAKE", "TELEHEALTH": null, "FUNCTIONAL": "LANDMARK HOSPITALS" }, "geometry": { "type": "Point", "coordinates": [ -111.893369106999955, 40.679591879000043 ] } },
{ "type": "Feature", "properties": { "OBJECTID": 1088, "FACTYPE": null, "FACILITY_I": 0.0, "FACID": null, "NAME": "SALT LAKE CITY FIRSTMED", "ADDRESS": "441 S REDWOOD RD", "CITY": "SALT LAKE CITY", "ZIP": "84104", "TELEPHONE": null, "TYPE": "URGENT CARE CLINIC", "COUNTY": "SALT LAKE", "TELEHEALTH": null, "FUNCTIONAL": "URGENT CARE" }, "geometry": { "type": "Point", "coordinates": [ -111.938366622, 40.759543235000081 ] } },
{ "type": "Feature", "properties": { "OBJECTID": 1089, "FACTYPE": null, "FACILITY_I": 0.0, "FACID": null, "NAME": "MURRAY FIRSTMED", "ADDRESS": "5911 S FASHION BLVD", "CITY": "MURRAY", "ZIP": "84107", "TELEPHONE": "8012666483", "TYPE": "URGENT CARE CLINIC", "COUNTY": "SALT LAKE", "TELEHEALTH": null, "FUNCTIONAL": "URGENT CARE" }, "geometry": { "type": "Point", "coordinates": [ -111.882679018999966, 40.642019656000059 ] } },
{ "type": "Feature", "properties": { "OBJECTID": 1090, "FACTYPE": "151", "FACILITY_I": 74152.0, "FACID": "UT000319", "NAME": "WEST JORDAN FIRSTMED", "ADDRESS": "8822 S REDWOOD ROAD", "CITY": "WEST JORDAN", "ZIP": "84088", "TELEPHONE": "8012560009", "TYPE": "URGENT CARE CLINIC", "COUNTY": "SALT LAKE", "TELEHEALTH": null, "FUNCTIONAL": "URGENT CARE" }, "geometry": { "type": "Point", "coordinates": [ -111.940411461999986, 40.591248153000038 ] } },
{ "type": "Feature", "properties": { "OBJECTID": 1091, "FACTYPE": "051", "FACILITY_I": 120816.0, "FACID": null, "NAME": "COTTONWOOD HEIGHTS FIRSTMED", "ADDRESS": "1950 E 7000 S", "CITY": "SALT LAKE CITY", "ZIP": "84121", "TELEPHONE": "8019433300", "TYPE": "URGENT CARE CLINIC", "COUNTY": "SALT LAKE", "TELEHEALTH": null, "FUNCTIONAL": "URGENT CARE" }, "geometry": { "type": "Point", "coordinates": [ -111.835699534999947, 40.62393017900007 ] } },
{ "type": "Feature", "properties": { "OBJECTID": 1092, "FACTYPE": "01B", "FACILITY_I": 0.0, "FACID": "UT460009", "NAME": "UNIVERSITY ORTHOPAEDIC CENTER", "ADDRESS": "590 WAKARA WAY", "CITY": "SALT LAKE CITY", "ZIP": "84108", "TELEPHONE": "8015877109", "TYPE": "HOSPITAL", "COUNTY": "SALT LAKE", "TELEHEALTH": null, "FUNCTIONAL": "UNIVERSITY OF UTAH HEALTH" }, "geometry": { "type": "Point", "coordinates": [ -111.833104769999977, 40.756406864000041 ] } },
{ "type": "Feature", "properties": { "OBJECTID": 1093, "FACTYPE": "011", "FACILITY_I": 0.0, "FACID": null, "NAME": "LAYTON HOSPITAL", "ADDRESS": "201 WEST LAYTON PARKWAY", "CITY": "LAYTON", "ZIP": "84041", "TELEPHONE": "8015436000", "TYPE": "HOSPITAL", "COUNTY": "DAVIS", "TELEHEALTH": null, "FUNCTIONAL": "INTERMOUNTAIN HEALTH CARE" }, "geometry": { "type": "Point", "coordinates": [ -111.968820825999956, 41.052664471000071 ] } }
]
}
